city_code,latitude,longitude
aast,43.291176486,-0.081740504
abainville,48.532750546,5.514720649
abancourt,50.237015848,3.208145691
abaucourt hautecourt,49.197206165,5.548912425
abaucourt sur seille,48.892374591,6.265494475
abbans dessous,47.133644066,5.872795299
abbans dessus,47.126422353,5.886627099
abbaretz,47.556025135,-1.49321773
abbecourt,49.599684482,3.176852327
abbenans,47.496247466,6.450747182
abbeville,50.108461953,1.832118331
abbeville la riviere,48.343284985,2.191127606
abbeville les conflans,49.200485513,5.843731257
abbeville st lucien,49.520385668,2.16536057
abbevillers,47.427178279,6.922075563
abeilhan,43.457635463,3.299816331
abelcourt,47.793017587,6.277605629
abere,43.387077237,-0.175022837
abergement la ronce,47.064796871,5.3777147020000005
abergement le grand,46.913794701,5.679217966
abergement le petit,46.906556941,5.696846623
abergement les thesy,46.913425736,5.946167798
abidos,43.395117024,-0.627969424
abilly,46.9411668,0.7346711570000001
abitain,43.417347405,-0.997953891
abjat sur bandiat,45.581694651,0.759660254
ablain st nazaire,50.396735443,2.697561649
ablaincourt pressoir,49.841540847,2.824162486
ablainzevelle,50.153042129,2.741150105
ablancourt,48.810539412,4.530056403
ableiges,49.085390681,1.974876453
ablis,48.528463606,1.850859166
ablon,49.394167784,0.287092017
ablon sur seine,48.724658139,2.4212571670000003
aboen,45.412675338,4.126790977
aboncourt,49.256565568,6.354340588
aboncourt gesincourt,47.767985813,5.972855676
aboncourt sur seille,48.818456636,6.356104796
abondance,46.26628001,6.731861436
abondant,48.795241562,1.419603665
abos,43.353788699,-0.5509991870000001
abreschviller,48.601780036,7.155639154
abrest,46.096050566,3.449986435
abries ristolas,44.774752599,6.967890004
abscon,50.327672259,3.297955363
abzac,46.099584226,0.7158761920000001
accolans,47.490214573,6.534915475
accons,44.888443768,4.392010929
accous,42.923528898,-0.6135898040000001
achain,48.916241554,6.590970262
achen,49.046037232,7.184575993
achenheim,48.580621944,7.625748873
acheres,47.282653733,2.458761486
acheres la foret,48.348745542,2.564115074
achery,49.694004156,3.397491579
acheux en amienois,50.071730235,2.530600587
acheux en vimeu,50.066457284,1.670382248
acheville,50.384603761,2.882479545
achey,47.577466304,5.607388119
achicourt,50.272272653,2.755768001
achiet le grand,50.132750794,2.778947846
achiet le petit,50.125895179,2.755440093
achun,47.129277559,3.664497222
achy,49.556684427,1.972241222
acigne,48.146472503,-1.519156922
aclou,49.165580435,0.698765378
acon,48.769859509,1.104718837
acoua,-12.724026219,45.068896069
acq,50.349072613,2.655012792
acquigny,49.164558704,1.176307129
acquin westbecourt,50.729243721,2.077018046
acy,49.346919586,3.418183101
acy en multien,49.108868478,2.954495403
acy romance,49.491790397,4.327623192
adaincourt,49.006111849,6.443765909
adainville,48.72032203,1.662453862
adam les passavant,47.304423439,6.368961844
adam les vercel,47.163652359,6.390747202
adamswiller,48.906130415,7.201500348
adast,42.974476759,-0.076804788
ade,43.141350934,-0.025904404
adelange,49.008115022,6.605699558
adelans et le val de bithaine,47.706717531,6.395819289
adervielle pouchergues,42.795853294,0.385451223
adilly,46.701598921,-0.315682655
adinfer,50.193591382,2.705666569
adissan,43.535005474,3.426029227
adon,47.764264401,2.798142383
adriers,46.264597041,0.79007028
afa,41.984099158,8.798384636
affieux,45.507912414,1.767791721
affleville,49.263994959,5.753605265
affoux,45.843773423,4.413312279
affracourt,48.457907449,6.165471074
affringues,50.690271695,2.074841059
agassac,43.372367868,0.886030682
agde,43.309295818,3.48413177
agel,43.347960858,2.853529202
agen,44.202826475,0.6257305230000001
agen d aveyron,44.351284364,2.694054322
agencourt,47.125046661,4.985308654
agenville,50.17168719,2.107640449
agenvillers,50.179603631,1.924144229
ageville,48.112373641,5.337814152
agey,47.287287254,4.762807306
aghione,42.09858371,9.41182181
agincourt,48.729826659,6.235463434
agme,44.489430686,0.34048455
agnac,44.641053484,0.382996042
agnat,45.344948577,3.450247086
agneaux,49.116050454,-1.129597817
agnetz,49.396148302,2.382384446
agnez les duisans,50.310333074,2.6502061660000003
agnicourt et sechelles,49.716473106,3.961000078
agnieres,50.353764322,2.608250085
agnin,45.336168878,4.8603340710000005
agnos,43.153436315,-0.630450868
agny,50.252971563,2.760611801
agon coutainville,49.037646069,-1.581398282
agonac,45.281594362,0.745371185
agones,43.900869518,3.726913559
agonges,46.618364598,3.148778876
agos vidalos,43.039825353,-0.075185773
agris,45.77640727,0.327851647
agudelle,45.382903159,-0.469336458
aguessac,44.161114617,3.068929066
aguilcourt,49.393733209,3.967807801
aguts,43.531875331,1.924898366
agy,49.237565665,-0.7789675920000001
ahaxe alciette bascassan,43.143769095,-1.163564022
ahetze,43.404294744,-1.570713048
aheville,48.284847582,6.199840423
ahuille,48.024617891,-0.8724550670000001
ahun,46.08634614,2.024392165
ahuy,47.371214576,5.020496119
aibes,50.234095061,4.096310256
aibre,47.551605126,6.698455192
aicirits camou suhast,43.353964995,-1.016259181
aiffres,46.282658485,-0.41435841
aigaliers,44.069335204,4.311125899
aiglemont,49.789846274,4.769994691
aiglepierre,46.955778512,5.809725465
aigleville,49.005828514,1.425966936
aiglun,43.852732901,6.93495405
aignan,43.694511209,0.087454457
aignay le duc,47.671659569,4.751193926
aigne,43.326033683,2.79277504
aignes,43.33457269,1.586507415
aigneville,50.036764149,1.610001001
aigny,49.043266059,4.220972471
aigondigne,46.285815698,-0.270229662
aigre,45.902268933,0.023732964
aigrefeuille,43.56919333,1.585167634
aigrefeuille d aunis,46.116852349,-0.944445288
aigrefeuille sur maine,47.071508947,-1.415430336
aigremont,47.718143282,3.890698221
aiguebelette le lac,45.547345122,5.813970717
aiguefonde,43.492714535,2.323329777
aigueperse,46.014329612,3.202063687
aigues juntes,43.050400025,1.471458393
aigues mortes,43.550541316,4.184188614
aigues vives,43.000605933,1.877001309
aigueze,44.316552202,4.517078336
aiguilhe,45.052897229,3.88529152
aiguilles,44.779667302,6.875268309
aiguillon,44.301158324,0.357814808
aiguines,43.72853546,6.304429485
aigurande,46.455768476,1.840010436
ailhon,44.597864208,4.332925449
aillant sur milleron,47.795027328,2.937116217
aillas,44.483361356,-0.066640972
ailleux,45.799373838,3.933889889
aillevans,47.590407865,6.417477417
ailleville,48.254630088,4.694386507
aillevillers et lyaumont,47.938189827,6.333098391
aillianville,48.333532745,5.483120767
aillieres beauvoir,48.400472487,0.320480234
aillon le jeune,45.60880694,6.087894098
aillon le vieux,45.650444716,6.087489525
ailloncourt,47.756772764,6.387651806
ailly,49.158098248,1.244404254
ailly le haut clocher,50.081462066,1.995567382
ailly sur noye,49.746594378,2.346565802
ailly sur somme,49.91314894,2.186320431
aimargues,43.671856649,4.203894749
aime la plagne,45.566465331,6.613573271
ainay le chateau,46.715563658,2.720484548
ainay le vieil,46.664061045,2.544480969
aincille,43.134379392,-1.197226885
aincourt,49.072575712,1.77372219
aincreville,49.369615691,5.116082516
aingeray,48.737208698,6.018418018
aingeville,48.205048525,5.768495605
aingoulaincourt,48.456472965,5.27685469
ainharp,43.255001544,-0.935569436
ainhice mongelos,43.214132967,-1.159167926
ainhoa,43.297483814,-1.485227226
ainvelle,47.848140879,6.244383323
airaines,49.97210339,1.944740471
aire,49.470694956,4.163762094
aire sur l adour,43.699142452,-0.264655329
aire sur la lys,50.644306454,2.395506273
airel,49.212252923,-1.079534735
airion,49.422455866,2.418512833
airon notre dame,50.441355001,1.66747819
airon st vaast,50.427562917,1.671388367
airoux,43.366970654,1.874231985
airvault,46.828329637,-0.153347126
aiserey,47.172751002,5.169104193
aisey et richecourt,47.888018257,5.955431583
aisey sur seine,47.747838175,4.579054052
aisonville et bernoville,49.930322863,3.511399522
aissey,47.269953499,6.326897797
aisy sous thil,47.393645537,4.278823557
aisy sur armancon,47.657016195,4.20924168
aiti,42.404034764,9.228973435
aiton,45.573232172,6.256701971
aix,45.613360908,2.392246863
aix en ergny,50.586489042,1.99974374
aix en issart,50.480072954,1.861719837
aix en pevele,50.497966562,3.305339428
aix en provence,43.536112304,5.398630399
aix la fayette,45.50712609,3.528727604
aix les bains,45.696880561,5.903940196
aix noulette,50.421088701,2.712573894
aix villemaur palis,48.22692236,3.745810669
aixe sur vienne,45.798149794,1.131741221
aizac,44.719957976,4.330312142
aizanville,48.112225515,4.894739168
aize,47.10847279,1.707164089
aizecourt le bas,49.986133956,3.028473235
aizecourt le haut,49.966800462,2.982476597
aizelles,49.485003991,3.818515071
aizenay,46.738516931,-1.626759742
aizier,49.43028264,0.6261445330000001
aizy jouy,49.438697879,3.51124666
ajac,43.044692688,2.136515912
ajaccio,41.934723456,8.700937555
ajain,46.211067108,1.996082188
ajat,45.160829244,1.027376129
ajoncourt,48.845103358,6.30413448
ajoux,44.754643506,4.485312969
alaigne,43.097978233,2.092076593
alaincourt,47.946336979,6.099354278
alaincourt la cote,48.896815047,6.340315036
alairac,43.181792176,2.23575246
alan,43.219953502,0.927182617
alando,42.307923468,9.286438857
alata,41.973629147,8.73166165
alba la romaine,44.554270744,4.595462039
alban,43.884627312,2.456410362
albaret le comtal,44.867267846,3.143984914
albaret ste marie,44.886294946,3.251376295
albas,43.005737518,2.726652801
albe,48.361314302,7.33689019
albefeuille lagarde,44.048440837,1.273685621
albepierre bredons,45.07719203,2.819903907
albert,50.003897613,2.648835031
albertacce,42.311736325,8.924113162
albertville,45.668297972,6.404333115
albestroff,48.92994713,6.869756978
albi,43.925846212,2.147453419
albiac,44.767995466,1.813268379
albias,44.081453454,1.44893286
albieres,42.946401625,2.445888815
albies,42.75449595,1.698141074
albiez le jeune,45.239249084,6.358249278
albiez montrond,45.188708798,6.339642267
albignac,45.147333897,1.67798571
albigny sur saone,45.864099485,4.830633796
albine,43.444223338,2.527445115
albitreccia,41.860660612,8.8777584
albon,45.238965428,4.8623533
albon d ardeche,44.814986241,4.42533053
alboussiere,44.939786813,4.7345559470000005
albussac,45.141223861,1.814019768
alby sur cheran,45.815673511,6.016021901
alcay alcabehety sunharette,43.086619598,-0.976697306
aldudes,43.091972616,-1.434551954
alembon,50.780685084,1.87181552
alencon,48.431517633,0.091615677
alenya,42.640886096,2.98154834
aleria,42.106115829,9.49592506
ales,44.125130044,4.088567807
alet les bains,42.99419784,2.258684791
alette,50.523928746,1.850225596
aleu,42.894162766,1.267264749
alex,45.881011742,6.236291245
alexain,48.232200671,-0.704183081
aleyrac,44.499150841,4.946083614
alfortville,48.796134091,2.421407444
algajola,42.604789177,8.8573027
algans,43.599929423,1.891469884
algolsheim,48.003216164,7.550155226
algrange,49.364724852,6.047828116
alieze,46.585078016,5.58585556
alignan du vent,43.468872961,3.33962295
alincourt,49.402944699,4.345179699
alincthun,50.720812476,1.810489452
alise ste reine,47.535583539,4.488200641
alissas,44.706875383,4.623882131
alix,45.917088276,4.653774018
alixan,44.98219132,5.0170743
alizay,49.322053211,1.178381905
allain,48.549707126,5.920865048
allaines,49.963113198,2.937373824
allainville,48.720985482,1.29440409
allainville aux bois,48.467503784,1.902700771
allaire,47.639321756,-2.177336284
allamont,49.128601409,5.776906466
allamps,48.548705186,5.814884818
allan,44.494772796,4.798705608
allanche,45.231281197,2.953694537
alland huy et sausseuil,49.512260939,4.549472452
allarmont,48.468981824,7.02064601
allas bocage,45.38279089,-0.497653886
allas champagne,45.472277211,-0.339662889
allas les mines,44.82822667,1.074098936
allassac,45.255838761,1.469444198
allauch,43.353259041,5.5113703560000005
allegre,45.188928722,3.690406683
allegre les fumades,44.197410121,4.253634425
alleins,43.707442219,5.151455
allemagne en provence,43.78872288,6.030340492
allemanche launay et soyer,48.60649033,3.791242066
allemans,45.288011887,0.304900309
allemans du dropt,44.623398655,0.286349554
allemant,48.761492945,3.816528913
allemond,45.170477324,6.017771539
allenay,50.086508782,1.492446069
allenc,44.552035798,3.676554379
allenjoie,47.535796969,6.894147008
allennes les marais,50.541448519,2.9482816730000003
allerey,47.19024207,4.420607175
allerey sur saone,46.913836137,4.974271043
alleriot,46.799158728,4.9552235190000005
allery,49.959286214,1.88534342
alles sur dordogne,44.861916562,0.8747911410000001
alleuze,44.959742143,3.098247339
allevard,45.380219092,6.11347007
alleves,45.758963756,6.085941841
allex,44.766590378,4.915090897
alleyrac,44.894306765,3.98987195
alleyras,44.906555336,3.680215325
alleyrat,45.987848814,2.153881844
allez et cazeneuve,44.382408912,0.628605048
alliancelles,48.803583832,4.87364923
alliat,42.816304472,1.581326864
allibaudieres,48.586155215,4.122952875
allichamps,48.563785653,4.886579098
allier,43.179996096,0.125954174
allieres,43.038911091,1.364164827
alligny cosne,47.443657906,3.072595102
alligny en morvan,47.20977196,4.17346003
allineuc,48.311573307,-2.867064963
allinges,46.333872337,6.465349113
allogny,47.23431803,2.306399725
alloinay,46.152561634,-0.039084081
allondans,47.522238979,6.751923125
allondaz,45.711712162,6.371619949
allondrelle la malmaison,49.510917359,5.568760534
allonne,46.580574926,-0.381983618
allonnes,48.331871427,1.651907693
allons,43.979944656,6.590007837
allonville,49.937897356,2.367947823
allonzier la caille,45.999958375,6.104614427
allos,44.26188021,6.626633132
allouagne,50.532210322,2.50515355
alloue,46.020203116,0.525767135
allouis,47.17790877,2.240769225
allouville bellefosse,49.594335367,0.6658613360000001
alluy,47.033763377,3.632896076
alluyes,48.229095148,1.364562686
ally,45.167013463,2.355157578
almayrac,44.099234259,2.156031934
almeneches,48.69830809,0.126058474
almont les junies,44.600689761,2.31056563
alos,42.897888566,1.129211246
alos sibas abense,43.113422286,-0.8773303750000001
aloxe corton,47.068008045,4.86156952
alquines,50.733788991,1.993568178
alrance,44.13536857,2.6754921080000003
alsting,49.180352253,7.001389049
altagene,41.709341198,9.077320052
alteckendorf,48.794329904,7.596409519
altenach,47.601689849,7.108613025
altenheim,48.719953024,7.462341619
althen des paluds,44.005174387,4.958647652
altiani,42.21988286,9.278582603
altier,44.45942682,3.856773716
altillac,44.980807652,1.868822079
altkirch,47.621012196,7.244552802
altorf,48.524446839,7.53798293
altrippe,49.028102643,6.815985041
altviller,49.069159375,6.731599772
altwiller,48.915535174,6.980351609
aluze,46.852000824,4.690401561
alvignac,44.833583975,1.6855300510000002
alvimare,49.606943386,0.63238274
alzen,42.981477991,1.455583307
alzi,42.31255873,9.314211407
alzing,49.276565045,6.553389254
alzon,43.973904809,3.447073711
alzonne,43.265225733,2.174803002
amage,47.846082414,6.497632308
amagne,49.516074695,4.502827092
amagney,47.305243075,6.148758974
amailloux,46.749428823,-0.313637251
amance,47.79009351,6.053045602
amancey,47.031012477,6.076248417
amancy,46.073169717,6.330360006
amange,47.167494802,5.564771256
amanlis,47.999806826,-1.496122011
amanty,48.515476429,5.604950119
amanvillers,49.159937907,6.046301462
amanze,46.326471131,4.236350327
amarens,44.043629372,1.920804586
amathay vesigneux,47.023097865,6.195852083
amaye sur orne,49.091205048,-0.434631233
amaye sur seulles,49.082806873,-0.7187559680000001
amazy,47.383317688,3.560930747
ambacourt,48.351918261,6.139617189
ambares et lagrave,44.944318702,-0.500835162
ambax,43.368429934,0.936646828
ambazac,45.953447091,1.399473068
ambel,44.800072796,5.933301697
ambenay,48.840243242,0.7408847190000001
amberac,45.856242836,0.058930674
amberieu en bugey,45.961048852,5.372275427
amberieux d azergues,45.928617479,4.74036159
amberieux en dombes,45.99616357,4.911967138
ambernac,45.974715365,0.5568083340000001
amberre,46.758359932,0.153504367
ambert,45.555678137,3.756882059
ambes,45.011910591,-0.5490662
ambeyrac,44.494043263,1.935547446
ambialet,43.926612188,2.375769232
ambiegna,42.087881677,8.77334639
ambierle,46.106348726,3.891476492
ambievillers,47.996043428,6.140084042
ambillou,47.452077816,0.446281111
ambilly,46.196323189,6.224221286
amblainville,49.206978516,2.120010182
amblans et velotte,47.680835705,6.417873412
ambleny,49.376624509,3.183778907
ambleon,45.749886304,5.594584599
ambleteuse,50.811855704,1.621191096
ambleville,49.150476298,1.694631625
ambloy,47.709042218,0.969546737
ambly fleury,49.488795424,4.489050609
ambly sur meuse,49.022676248,5.452331066
amboise,47.391659896,1.000240215
ambon,47.557163,-2.541061818
ambonil,44.792178622,4.910072732
ambonnay,49.087299195,4.171915349
ambonville,48.313927373,5.010853706
ambrault,46.783804042,1.949277415
ambres,43.728624217,1.831538189
ambricourt,50.465978516,2.171348093
ambrief,49.321494733,3.403714795
ambrieres,48.629196609,4.829432778
ambrieres les vallees,48.423016547,-0.624319069
ambrines,50.308008115,2.466395589
ambronay,46.005690539,5.357748739
ambrugeat,45.532517093,2.085393166
ambrumesnil,49.858552892,0.985095361
ambrus,44.230183089,0.246089185
ambutrix,45.936683389,5.332446671
amecourt,49.37726881,1.733450056
amel sur l etang,49.257113525,5.6470179510000005
amelecourt,48.840575844,6.488082196
amelie les bains palalda,42.444016566,2.6832822160000003
amendeuix oneix,43.343817888,-1.042742301
amenoncourt,48.629897893,6.784271028
amenucourt,49.110115197,1.649566256
ames,50.535517273,2.415509988
amettes,50.527103346,2.394372392
ameugny,46.524199753,4.666928533
ameuvelle,47.948917734,5.9520309
amfreville,49.250289443,-0.242084641
amfreville la mi voie,49.404474795,1.124778896
amfreville les champs,49.312696905,1.321536936
amfreville sous les monts,49.30232703,1.267574638
amfreville st amand,49.218698918,0.926176229
amfreville sur iton,49.156750042,1.146870286
amfroipret,50.278406354,3.735533467
amiens,49.900410245,2.289706107
amifontaine,49.498637877,3.922881332
amigny,49.156655122,-1.185145361
amigny rouy,49.610759195,3.302789238
amillis,48.735332725,3.135102125
amilly,47.986510467,2.7825529380000003
amirat,43.896713676,6.812953852
ammerschwihr,48.119691705,7.259891792
amne,48.040547739,-0.043500279
amneville les thermes,49.255119947,6.133165215
amoncourt,47.734908873,6.061968876
amondans,47.071496119,6.035189509
amont et effreney,47.867837794,6.562998533
amorots succos,43.362668798,-1.124250607
amou,43.593342475,-0.744139434
ampilly le sec,47.810148413,4.503275679
ampilly les bordes,47.639055718,4.627205952
amplepuis,45.964730332,4.328411964
amplier,50.137232626,2.397179728
amponville,48.287862114,2.530549292
ampriani,42.254069427,9.356980634
ampuis,45.50340929,4.803076894
ampus,43.628565104,6.372011613
amure,46.256854006,-0.60867093
amy,49.641424914,2.832957078
anais,45.769826577,0.205536667
anan,43.352336076,0.811012747
ance feas,43.158178371,-0.693290335
anceaumeville,49.568937829,1.065459676
ancelle,44.619107267,6.229122478
ancemont,49.065116387,5.382814817
ancenis st gereon,47.379896051,-1.189491302
ancerville,49.033172292,6.398366058
ancerviller,48.533723288,6.836834385
ancey,47.333309642,4.822561184
anchamps,49.925011416,4.665777837
anche,47.13228055,0.307346276
anchenoncourt et chazel,47.861679507,6.115346898
ancienville,49.218878777,3.208246989
ancier,47.444244497,5.636250912
ancinnes,48.360275076,0.173500559
ancizan,42.899316821,0.283920163
ancone,44.579727269,4.720685488
ancourt,49.908641304,1.179266953
ancourteville sur hericourt,49.691298556,0.660585022
ancretieville st victor,49.654670779,0.967552488
ancretteville sur mer,49.788676267,0.5041166490000001
anctoville sur boscq,48.845884063,-1.5282228720000002
ancy,45.832347273,4.503836119
ancy dornot,49.06322802,6.045631255
ancy le franc,47.777872522,4.164372183
ancy le libre,47.805868485,4.145083896
andainville,49.891196923,1.784781039
andance,45.228575085,4.797395047
andancette,45.246625023,4.812717032
ande,49.227801894,1.244586862
andechy,49.715505557,2.706837892
andel,48.49410569,-2.551043716
andelain,49.641183256,3.36941838
andelaroche,46.250451343,3.745468978
andelarre,47.590108144,6.09041439
andelarrot,47.578196897,6.097966437
andelat,45.070233689,3.059413009
andelnans,47.603524434,6.865480412
andelot blancheville,48.235255168,5.285576441
andelot en montagne,46.859307701,5.9287358910000005
andelot morval,46.42394772,5.427398813
andelu,48.88775093,1.810612795
andernay,48.783883231,4.953053625
andernos les bains,44.7544456,-1.080648364
anderny,49.335455273,5.880607782
andert et condon,45.787194157,5.657799976
andeville,49.257482215,2.167502732
andillac,44.005098265,1.893601408
andilly,46.070473974,6.07059616
andilly en bassigny,47.928322058,5.520723908
andiran,44.102108535,0.285766416
andlau,48.390851515,7.384655289999999
andoins,43.300215691,-0.222940052
andolsheim,48.065201697,7.436505178
andon,43.776942181,6.82324955
andonville,48.273983808,2.023804273
andornay,47.658510131,6.598176979
andouille,48.177350193,-0.792482981
andouille neuville,48.297657345,-1.5958135100000002
andouque,44.008089131,2.30274435
andrein,43.399856609,-0.889582462
andres,50.866309354,1.918798821
andrest,43.315699572,0.06574095
andresy,48.981584282,2.04971852
andrezel,48.614335002,2.806723353
andrezieux boutheon,45.535161773,4.276857633
andryes,47.529837195,3.465551376
anduze,44.050761101,3.97434307
aneres,43.076407247,0.464619753
anet,48.852753435,1.442802993
angais,43.238820932,-0.247858813
ange,47.316434338,1.239726054
angeac champagne,45.614173661,-0.288688772
angeac charente,45.622747691,-0.082213685
angecourt,49.635019464,4.977168235
angeduc,45.47816645,-0.05494606
angely,47.560339843,4.011705628
angeot,47.695619442,7.006125002
angers,47.476657084,-0.556221025
angerville,49.244359534,-0.027793551
angerville bailleul,49.668364763,0.454011851
angerville l orcher,49.58627403,0.291583
angerville la campagne,48.988819076,1.157414318
angerville la martel,49.768538587,0.50199136
angervilliers,48.59080074,2.058514271
angeville,43.993875887,1.031296022
angevillers,49.387744996,6.043350715
angicourt,49.314942575,2.502944649
angiens,49.834019497,0.799571582
angirey,47.455496412,5.773438609
angivillers,49.488627299,2.499034375
anglade,45.211062829,-0.6379774920000001
anglards de salers,45.196815001,2.465337524
anglards de st flour,44.98938069,3.158487426
anglars,44.747738727,1.89897208
anglars juillac,44.486335023,1.208272181
anglars nozac,44.78295856,1.408377654
anglars st felix,44.416128359,2.238448993
anglefort,45.909091467,5.795056945
anglemont,48.376316162,6.668575238
angles,43.944118651,6.552080036
angles sur l anglin,46.69834001,0.8957036020000001
anglesqueville l esneval,49.629949855,0.235091872
anglesqueville la bras long,49.77858725,0.783324062
anglet,43.490658951,-1.515103364
angliers,46.206140183,-0.948797569
anglure,48.587830235,3.817415338
anglure sous dun,46.235885987,4.370073623
angluzelles et courcelles,48.665852678,3.905584189
angoisse,45.430361151,1.150554023
angomont,48.504908681,6.972020003
angos,43.198549847,0.162225025
angouleme,45.647372131,0.145140856
angoulins,46.10680996,-1.105718284
angoume,43.69940642,-1.142048034
angous,43.292107548,-0.812056286
angoustrine villeneuve escaldes,42.564597993,1.950448374
angres,50.410127198,2.751924573
angresse,43.658039615,-1.363898834
angrie,47.577599409,-0.968281976
anguilcourt le sart,49.694090787,3.427868534
angy,49.334940881,2.329001687
anhaux,43.146295958,-1.30074926
anhiers,50.404075435,3.155435452
aniane,43.683376049,3.592224268
aniche,50.330752803,3.255832923
anisy,49.25088322,-0.398345461
anizy le grand,49.516096173,3.453032228
anjeux,47.881927334,6.209512977
anjou,45.349046062,4.883047344
anjouin,47.201099179,1.807778523
anjoutey,47.701893142,6.927370297
anla,43.005489723,0.591553866
anlezy,46.966560312,3.498985277
anlhiac,45.320858243,1.121311307
annay,47.530833061,2.941767216
annay la cote,47.55241425,3.870683717
annay sur serein,47.728173034,3.963052966
annebault,49.249324503,0.054063623
annecy,45.901643496,6.118095198
annelles,49.431595173,4.414207264
annemasse,46.191081755,6.243481991
anneot,47.516887609,3.879294274
annepont,45.844827994,-0.607565036
annequin,50.503901209,2.720434276
annesse et beaulieu,45.183043482,0.5952701380000001
annet sur marne,48.922737777,2.708489113
anneux,50.156658346,3.125967493
anneville ambourville,49.450047451,0.8914694
anneville en saire,49.636695797,-1.284190851
anneville la prairie,48.200470525,5.087124631
anneville sur scie,49.839207997,1.092579699
anneyron,45.271642432,4.891900724
annezay,46.009975761,-0.6966073620000001
annezin,50.54020017,2.619838724
annoeullin,50.526085176,2.927412205
annoire,46.959137146,5.277080177
annois,49.719521853,3.176029474
annoisin chatelans,45.761128416,5.291798813
annoix,46.968944845,2.542704485
annonay,45.24633989,4.651027131
annonville,48.386378355,5.270500582
annot,43.962040954,6.663525802
annouville vilmesnil,49.680024992,0.431400968
annoux,47.62377829,4.05079391
annoville,48.961854522,-1.531760584
anor,49.995140762,4.118107159
anos,43.398626602,-0.289482447
anost,47.076785433,4.092404698
anould,48.184868516,6.940598622
anoux,49.273053416,5.86496548
anoye,43.39669813,-0.136386743
anquetierville,49.536094824,0.633130022
anrosey,47.84514622,5.660584552
ansac sur vienne,45.994429549,0.619779368
ansacq,49.350399881,2.3643605450000003
ansan,43.686574708,0.781419756
ansauville,48.812313657,5.823605937
ansauvillers,49.566936797,2.387648667
anse,45.942534182,4.708196729
anse bertrand,16.465346849,-61.462008256
ansignan,42.76262284,2.520677753
ansost,43.432867324,0.110706082
ansouis,43.736610005,5.472027536
anstaing,50.603632324,3.189114281
antagnac,44.355893441,-0.00127596
anterrieux,44.831118219,3.056663607
anteuil,47.37595213,6.5763163030000005
antezant la chapelle,45.99486088,-0.482863139
anthe,44.373398888,0.95537278
anthelupt,48.60266154,6.414593963
anthenay,49.139496813,3.734628893
antheny,49.844495624,4.304875712
antheuil,47.17635415,4.749018229
antheuil portes,49.500246859,2.733575159
anthien,47.308662574,3.724871048
anthon,45.784921648,5.15430482
anthy sur leman,46.353103956,6.427678428
antibes,43.587761948,7.105220285
antichan,42.991977926,0.583921757
antichan de frontignes,42.969893886,0.676237018
antignac,45.351968747,2.561853149
antigny,46.536027442,0.8388501420000001
antigny la ville,47.101459482,4.559930499
antilly,49.197683918,6.247776241
antin,43.332368085,0.290463502
antisanti,42.156532393,9.3835262
antist,43.119377652,0.134781728
antogny le tillac,46.968234095,0.555039729
antoigne,47.078632904,-0.131999208
antoingt,45.501058849,3.18459919
antonne et trigonant,45.229949765,0.832277228
antony,48.749986765,2.299028344
antran,46.876860335,0.53053187
antras,42.873136055,0.901076172
antrenas,44.588325071,3.254278276
antugnac,42.962204778,2.218972835
antully,46.892321888,4.402851225
anveville,49.699795091,0.748614368
anvin,50.450179428,2.257461917
any martin rieux,49.881643579,4.223934549
anzat le luguet,45.330504719,3.012135886
anzeling,49.2686108,6.462351546
anzeme,46.253729205,1.849735938
anzex,44.286127406,0.170592199
anzin,50.375299666,3.510977086
anzin st aubin,50.318112187,2.740405718
anzy le duc,46.323724417,4.071539393
aoste,45.59812037,5.613157279
aougny,49.187422221,3.72530404
aouste,49.795707673,4.313359522
aouste sur sye,44.706856708,5.057320177
aouze,48.384482916,5.866716837
apach,49.460153265,6.386136753
apatou,4.830256463,-54.269342801
apchat,45.37381113,3.147482543
apchon,45.244303271,2.697343487
apinac,45.392236674,3.994151071
appelle,43.580592538,1.954058893
appenai sous belleme,48.340171938,0.5639507490000001
appenans,47.451386696,6.568703362
appenwihr,48.025370541,7.452307401
appeville,49.326950901,-1.335330812
appeville annebault,49.322697439,0.650715441
appietto,42.00345914,8.733864943
appilly,49.582805317,3.121560564
appoigny,47.866327406,3.520314708
apprieu,45.397409939,5.496184698
appy,42.804212622,1.741572347
apremont,47.392573101,5.52963432
apremont la foret,48.844009401,5.621721761
apremont sur allier,46.911082462,3.018983821
aprey,47.770978141,5.19794575
apt,43.879017119,5.38838917
arabaux,42.980750474,1.6334671150000002
araches la frasse,46.029848904,6.661387684
aragnouet,42.784532384,0.178166523
aragon,43.298607525,2.30724607
aramits,43.13208455,-0.72450114
aramon,43.904355826,4.683236609
aranc,46.001293319,5.510946399
arancou,43.444445769,-1.053034353
arandas,45.890233979,5.498924738
arandon passins,45.703848733,5.436653229
araujuzon,43.349900967,-0.8300133120000001
araules,45.06520167,4.168745005
araux,43.340941705,-0.81873599
arbanats,44.671200701,-0.402391308
arbas,42.992381129,0.905652859
arbecey,47.735500248,5.931741131
arbellara,41.671484206,8.989411005000001
arbent,46.283607621,5.690755574
arbeost,42.979479452,-0.273974048
arberats sillegue,43.340649109,-0.991612485
arbigny,46.477598582,4.960100975
arbigny sous varennes,47.860719039,5.610340771
arbin,45.51043558,6.07404533
arblade le bas,43.705548149,-0.172738293
arblade le haut,43.740926806,-0.061728962
arbois,46.894404349,5.773071251
arbon,43.000649712,0.7316492870000001
arbonne,43.421671021,-1.549100628
arbonne la foret,48.410407079,2.560970923
arboras,43.720601194,3.475014024
arbori,42.128066991,8.795671346
arbot,47.847194254,5.016939147
arbouans,47.488799169,6.808337068
arboucave,43.605890778,-0.442082312
arbouet sussaute,43.371568443,-0.98888452
arbourse,47.249162568,3.224686548
arboussols,42.666163055,2.492752695
arboys en bugey,45.712796712,5.64167722
arbrissel,47.927055054,-1.294968902
arbus,43.324667672,-0.506427276
arbusigny,46.086536566,6.207481076
arc en barrois,47.947837778,5.022852525
arc et senans,47.035433492,5.769789549
arc les gray,47.463027978,5.581898984
arc sous cicon,47.052001906,6.399503842
arc sous montenot,46.915171749,6.005864119
arc sur tille,47.338758397,5.200858874
arcachon,44.653412436,-1.174977983
arcais,46.300820042,-0.695263943
arcambal,44.454657003,1.547825948
arcangues,43.426545424,-1.517355825
arcay,46.962488639,2.335823538
arceau,47.376096012,5.196336831
arcenant,47.140218174,4.8383377880000005
arcens,44.900285261,4.31760549
arces,45.556910874,-0.885747512
arces dilo,48.098619782,3.594116199
arcey,47.519242455,6.651170498
archail,44.111165658,6.330564632
archamps,46.122411893,6.139530007
archelange,47.148466824,5.521066454
arches,45.298825401,2.318519058
archettes,48.132509524,6.549290419
archiac,45.523145902,-0.301212502
archignac,45.015702866,1.291297049
archignat,46.367116193,2.409580218
archigny,46.671890348,0.680517625
archingeay,45.928459449,-0.7166997140000001
archon,49.74412009,4.119783314
arcinges,46.13444647,4.287903294
arcins,45.07657784,-0.710067921
arcis le ponsart,49.224557418,3.689398597
arcis sur aube,48.527674548,4.141496026
arcisses,48.33485535,0.898911717
arcizac adour,43.149089954,0.090141364
arcizac ez angles,43.096033851,0.015233396
arcizans avant,42.959348987,-0.119136516
arcizans dessus,42.99575345,-0.1606022
arcomps,46.675686392,2.426926349
arcon,46.965530071,6.379010107
arconcey,47.216117184,4.461186356
arconnay,48.395788285,0.081320625
arconsat,45.897864396,3.716566661
arconville,48.156282129,4.729695768
arcueil,48.805418818,2.334016124
arcy ste restitue,49.25492425,3.478630764
arcy sur cure,47.59667428,3.760826073
ardelles,48.545781251,1.179639792
ardelu,48.35520945,1.91276132
ardenais,46.645120556,2.352404784
ardenay sur merize,47.993867313,0.428018896
ardengost,42.927175066,0.414684115
ardentes,46.736217687,1.823599787
ardes,45.398741576,3.118432991
ardeuil et montfauxelles,49.267750939,4.7049769900000005
ardiege,43.06681625,0.644374978
ardillieres,46.050259447,-0.8902993090000001
ardin,46.481612301,-0.554992834
ardizas,43.723514176,0.998787434
ardoix,45.191521675,4.743433494
ardon,46.772582561,5.876813684
ardouval,49.74145644,1.272118315
ardres,50.877060311,1.983825846
aregno,42.590898593,8.876938813
areines,47.798193828,1.102442474
arelaune en seine,49.456808661,0.7485996070000001
aren,43.247993049,-0.724858336
arengosse,44.033746808,-0.78716253
arenthon,46.097781583,6.33862149
ares,44.795393956,-1.078446421
aresches,46.89296936,5.919935939
aressy,43.27795339,-0.327877568
arette,43.040263836,-0.7360177370000001
arfeuille chatain,46.06040761,2.434069303
arfeuilles,46.143292065,3.74351109
arfons,43.424306581,2.189383773
argagnon,43.462289823,-0.67608647
arganchy,49.230133145,-0.732464839
argancon,48.250077553,4.597013006
argancy,49.198800621,6.210336441
argein,42.923755653,0.990460504
argeles bagneres,43.091505354,0.197216918
argeles gazost,43.005417659,-0.095657309
argeles sur mer,42.535086357,3.024219184
argeliers,43.311337823,2.910488603
argelliers,43.730812428,3.65262282
argelos,43.449047728,-0.347222706
argelouse,44.372064752,-0.632271211
argences,49.134123932,-0.158603199
argences en aubrac,44.775559383,2.815050399
argens minervois,43.245738053,2.77094126
argent sur sauldre,47.562550775,2.430002061
argentan,48.732527209,-0.013506115
argentat sur dordogne,45.113318022,1.939381797
argentenay,47.823275659,4.114469175
argenteuil,48.951531886,2.240388744
argenteuil sur armancon,47.743972381,4.101309
argentieres,48.652020763,2.870851784
argentine,45.489243864,6.33324802
argenton,44.384833781,0.066485955
argenton sur creuse,46.57872432,1.49260686
argentonnay,46.970121732,-0.420299271
argentre,48.090663629,-0.6322311340000001
argentre du plessis,48.048415915,-1.138440886
argenvieres,47.140773691,2.993136931
argenvilliers,48.276546355,0.968240702
argers,49.066706501,4.857891789
arget,43.544776256,-0.532079335
argiesans,47.604988882,6.823129607
argillieres,47.664387639,5.6259085550000005
argilliers,43.981476028,4.490965018
argilly,47.068592327,5.024747349
argis,45.933504727,5.482593252
argiusta moriccio,41.815418536,9.032650196
argoeuves,49.94075271,2.245749872
argol,48.249860637,-4.299018623
argonay,45.947047258,6.147846964
argoules,50.337505625,1.817901728
argueil,49.546132923,1.525315908
arguel,49.876918231,1.807772521
arguenos,42.958681197,0.727451611
argut dessous,42.89240983,0.715102176
argy,46.941019228,1.46085094
arhansus,43.254973936,-1.023831956
aries espenan,43.275328119,0.529872149
arifat,43.775693165,2.353374322
arignac,42.87585768,1.595543477
arinthod,46.393818871,5.582269114
arith,45.721230934,6.063133565
arlanc,45.420760483,3.722981313
arlay,46.765371686,5.537548031
arlebosc,45.040518879,4.628651947
arlempdes,44.866937646,3.902608861
arles,43.546935152,4.661799679
arles sur tech,42.449556114,2.625980183
arlet,45.112659539,3.410852712
arleuf,47.040464565,4.015692994
arleux,50.281849972,3.112754755
arleux en gohelle,50.364919712,2.868667332
arlos,42.874056005,0.694663133
armaille,47.713499413,-1.137696474
armancourt,49.370641965,2.763892851
armaucourt,48.812339946,6.299016215
armbouts cappel,50.982089528,2.348154048
armeau,48.047722951,3.337288949
armendarits,43.299147441,-1.161516069
armentieres,50.691261577,2.88000046
armentieres en brie,48.980878518,3.016484077
armentieres sur avre,48.681008472,0.806912045
armentieres sur ourcq,49.174033511,3.387020839
armentieux,43.522126356,0.097048963
armes,47.463168788,3.562102251
armillac,44.555656493,0.390429199
armissan,43.187388933,3.089015254
armix,45.854492231,5.583031315
armous et cau,43.572846789,0.186719969
armoy,46.35266858,6.51137911
arnac,45.063182281,2.226629036
arnac la poste,46.2640246,1.373071102
arnac pompadour,45.410541802,1.361037136
arnac sur dourdou,43.71876226,2.946073174
arnage,47.928651015,0.191183237
arnancourt,48.349577046,4.914243209
arnas,46.018548991,4.710963117
arnaud guilhem,43.146286942,0.8995475340000001
arnave,42.852578527,1.6462588500000002
arnaville,49.01356877,6.025501897
arnay le duc,47.127420484,4.479678909
arnay sous vitteaux,47.437236808,4.498765424
arnayon,44.493378659,5.311424062
arne,43.181239135,0.493533926
arneguy,43.085764743,-1.276085931
arneke,50.840877454,2.41838774
arnicourt,49.553854663,4.341031209
arnieres sur iton,48.991596387,1.085324651
arnos,43.458449444,-0.53344612
arnouville,48.986083553,2.417139933
arnouville les mantes,48.91097494,1.720241832
aroffe,48.40903449,5.899573913
aromas,46.305487592,5.485367228
aron,48.30374477,-0.549792072
aroue ithorots olhaiby,43.309026237,-0.928438995
aroz,47.613261818,6.005339866
arpaillargues et aureillac,43.999630319,4.364829501
arpajon,48.59030281,2.243954666
arpajon sur cere,44.876118753,2.464421864
arpavon,44.371127022,5.273184253
arpenans,47.620693728,6.412623173
arpheuilles,46.900631063,1.272695795
arpheuilles st priest,46.226666425,2.665255145
arphy,44.041566468,3.58678608
arquenay,47.985707266,-0.588696768
arques,42.94772822,2.3865072
arques la bataille,49.882469559,1.137815968
arquettes en val,43.105091278,2.497375532
arqueves,50.072423398,2.477973024
arquian,47.535241684,2.998368087
arracourt,48.724938009,6.5336532080000005
arradon,47.633874493,-2.822764777
arraincourt,48.976228417,6.530780572
arrancourt,48.326949781,2.150947448
arrancy,49.49882629,3.764222249
arrancy sur crusnes,49.411260191,5.651309178
arrans,47.690185682,4.328104867
arras,50.290017375,2.766050504
arras en lavedan,42.967252646,-0.14391887
arras sur rhone,45.143577486,4.803678022
arrast larrebieu,43.28560868,-0.8500577680000001
arraute charritte,43.419229232,-1.113684704
arraye et han,48.835554179,6.289990455
arrayou lahitte,43.093247568,0.044910892
arre,43.957520591,3.518933482
arreau,42.913031694,0.351868085
arrelles,48.046818569,4.27543269
arrembecourt,48.543829581,4.6059035690000005
arrenes,46.072107861,1.567588221
arrens marsous,42.910277525,-0.260463696
arrentes de corcieux,48.132458027,6.875319484
arrentieres,48.267685084,4.738425567
arrest,50.12908117,1.619223188
arreux,49.826390951,4.661253104
arriance,49.018582851,6.503899172
arricau bordes,43.501790514,-0.142056874
arrien,43.313141199,-0.162470897
arrien en bethmale,42.877897905,1.036286961
arrigas,43.99061745,3.480653805
arrigny,48.607526717,4.695108568
arro,42.096711741,8.80432428
arrodets,43.030324516,0.280936797
arrodets ez angles,43.070362731,0.041483112
arromanches les bains,49.335605349,-0.62054518
arronnes,46.052450939,3.574970887
arronville,49.174593818,2.11346183
arros de nay,43.181817974,-0.295545861
arroses,43.54674009,-0.110348902
arrouede,43.360461707,0.5833988360000001
arrout,42.947553939,1.019991475
arry,48.993540036,6.057477167
ars,45.636808751,-0.402160345
ars en re,46.211015321,-1.514662123
ars laquenexy,49.087583906,6.269127744
ars les favets,46.200238077,2.748577329
ars sur formans,45.993537592,4.821960428
ars sur moselle,49.086408934,6.035798897
arsac,44.988794007,-0.7009874580000001
arsac en velay,44.993572512,3.954964855
arsague,43.581829168,-0.7903906380000001
arsans,47.367520245,5.631663711
arsonval,48.280057922,4.650961277
arsure arsurette,46.7156437,6.079590218
arsy,49.405829969,2.689574755
art sur meurthe,48.66124481,6.262544525
artagnan,43.407036157,0.08246106
artaise le vivier,49.571842193,4.892941488
artaix,46.249654263,3.993343309
artalens souin,42.977748776,-0.041173902
artannes sur indre,47.276449138,0.5939068390000001
artannes sur thouet,47.201721839,-0.097035514
artas,45.537609141,5.166786373
artassenx,43.845440371,-0.396230335
artemare,45.869624164,5.690088298
artemps,49.761601531,3.197375465
artenay,48.076013181,1.880265411
arthaz pont notre dame,46.160743426,6.269406619
arthel,47.24355899,3.406359261
arthemonay,45.141265594,5.05985141
arthenac,45.503608933,-0.323644949
arthes,43.964144713,2.225927724
arthez d armagnac,43.890842865,-0.247675872
arthez d asson,43.088343106,-0.252578076
arthez de bearn,43.466458344,-0.6198733190000001
artheze,47.789406037,-0.111745535
arthies,49.095189656,1.796970834
arthon,46.693483153,1.711413492
arthonnay,47.932095563,4.230399924
arthun,45.76879931,4.038673958
artigat,43.143173579,1.446726199
artignosc sur verdon,43.693733679,6.108134862
artigue,42.826174104,0.640068603
artigueloutan,43.271911317,-0.243885304
artiguelouve,43.313657981,-0.47313205
artiguemy,43.126229667,0.246303286
artigues,42.689846976,2.037910827
artigues pres bordeaux,44.860257511,-0.49021254
artins,47.750083146,0.747599152
artix,43.06660141,1.562149832
artolsheim,48.207955251,7.599698148
artonne,46.005861674,3.150737937
artres,50.295615075,3.538042319
artzenheim,48.114367362,7.541922599
arudy,43.100531763,-0.474690799
arue,44.057941298,-0.355094043
arvert,45.746809504,-1.123864567
arveyres,44.891859371,-0.276646984
arviere en valromey,45.916294208,5.735432914
arvieu,44.19077226,2.667615091
arvieux,44.764278425,6.722280206
arvigna,43.059194027,1.72896982
arvillard,45.409980704,6.17020029
arville,48.181094565,2.5565554610000003
arvillers,49.73197773,2.6360065610000003
arx,44.112576872,0.086529065
arzacq arraziguet,43.540939187,-0.425454697
arzal,47.521380902,-2.404143814
arzano,47.893174019,-3.442755537
arzembouy,47.247059836,3.359730906
arzenc d apcher,44.844612962,3.111661916
arzenc de randon,44.653261486,3.614651453
arzens,43.201263792,2.204570916
arzillieres neuville,48.645635954,4.600018128
arzon,47.547656248,-2.886486806
arzviller,48.721734238,7.162916088
asasp arros,43.118033401,-0.6293057360000001
ascain,43.339026893,-1.6311270370000002
ascarat,43.183430641,-1.262634019
aschbach,48.941684697,7.980926953
ascheres le marche,48.111941271,2.010289853
asco,42.434499645,8.997095065
ascou,42.719585461,1.930831083
ascoux,48.127537371,2.249710084
ascros,43.919400433,7.015400618
asfeld,49.473341079,4.123352844
aslonnes,46.445302093,0.333616964
asnan,47.310372331,3.5523411510000003
asnans beauvoisin,46.937234417,5.396578371
asnelles,49.333567738,-0.584019132
asnieres,49.204918232,0.402272778
asnieres en bessin,49.359860309,-0.937738501
asnieres en montagne,47.713292448,4.292182634
asnieres en poitou,46.089193984,-0.211286582
asnieres la giraud,45.893610948,-0.511486134
asnieres les dijon,47.386464651,5.045358406
asnieres sous bois,47.479006292,3.638742766
asnieres sur blour,46.149911163,0.784062856
asnieres sur nouere,45.70841115,0.048489012
asnieres sur oise,49.14081839,2.379558393
asnieres sur saone,46.385206065,4.883700297
asnieres sur seine,48.91591925,2.287808861
asnieres sur vegre,47.886393861,-0.226163061
asnois,47.397219844,3.587487468
aspach,48.653091221,6.967210044
aspach le bas,47.766592994,7.151180779
aspach michelbach,47.77440927,7.124291487
asperes,43.807058464,4.039019771
aspet,43.011445413,0.806104734
aspin aure,42.935617236,0.328180655
aspin en lavedan,43.075370765,-0.048596236
aspiran,43.567190207,3.448321556
aspremont,44.493223136,5.720869788
aspres les corps,44.812759793,5.999525437
aspres sur buech,44.560462282,5.786094829
aspret sarrat,43.070087372,0.7202972910000001
asprieres,44.555160089,2.138425033
asque,43.024641729,0.252201274
asques,44.948378078,-0.426184068
asquins,47.48782446,3.747207735
assac,43.978480399,2.434206002
assainvillers,49.622694986,2.599810439
assais les jumeaux,46.791578603,-0.067672432
assas,43.710446561,3.898270391
assat,43.257593511,-0.288647721
assay,47.067719602,0.276520407
asse le berenger,48.155733616,-0.318845803
asse le boisne,48.32206937,-0.003263234
asse le riboul,48.202867849,0.079163428
assenay,48.179104318,4.066291423
assencieres,48.356072631,4.20088906
assenoncourt,48.766720717,6.799036307
asserac,47.438121326,-2.412813329
assevent,50.288270591,4.019796518
assevillers,49.898388131,2.8409830510000003
assier,44.672150464,1.874298156
assieu,45.409925388,4.877766936
assignan,43.40024822,2.886676394
assigny,47.431177052,2.750725042
assis sur serre,49.680564098,3.554556194
asson,43.103547015,-0.220128938
asswiller,48.880587263,7.224184202
astaffort,44.064616182,0.6579263430000001
astaillac,44.951828283,1.830472623
aste,43.016574074,0.215628256
aste beon,43.030328422,-0.397434514
astet,44.684743774,4.026056625
astille,47.962013061,-0.8462356940000001
astis,43.438166611,-0.322733282
aston,42.681045186,1.659353899
astugue,43.097156721,0.07222857
athee,47.225421798,5.361313001
athee sur cher,47.314760061,0.902710253
athesans etroitefontaine,47.594198868,6.51545166
athie,47.562413813,4.258410718
athienville,48.717798898,6.486710107
athies,50.307513626,2.841582075
athies sous laon,49.575911394,3.69000239
athis,49.007496227,4.125568763
athis mons,48.709264749,2.386718909
athis val de rouvre,48.790712039,-0.465246864
athos aspis,43.413355236,-0.965108316
attainville,49.06037642,2.350739674
attancourt,48.534516417,4.943954918
attenschwiller,47.567860443,7.46835207
attiches,50.513359327,3.062132176
attichy,49.426017705,3.044577226
attignat,46.286061273,5.179817579
attignat oncin,45.514174192,5.77964579
attigneville,48.398025163,5.826508238
attigny,49.476266168,4.585200636
attilloncourt,48.797577226,6.385880014
attilly,49.855348527,3.15428951
attin,50.491637565,1.7550921220000002
atton,48.892874957,6.110496816
attray,48.120293175,2.131827333
attricourt,47.487711702,5.410826222
aubagnan,43.664888158,-0.49580273
aubagne,43.29362258,5.563232443
aubaine,47.130283617,4.733758442
aubais,43.749532227,4.145907728
aubarede,43.270017424,0.250195537
aubas,45.079329313,1.198485937
aubazat,45.128510212,3.445324919
aubazines,45.186100134,1.68610857
aube,48.732098453,0.545663133
aubeguimont,49.809313377,1.679204251
aubenas,44.610241548,4.395935019
aubenas les alpes,43.933926212,5.676594668
aubenasson,44.678375902,5.145299048
aubencheul au bac,50.251450462,3.161334535
aubencheul aux bois,50.024078162,3.26116661
aubenton,49.825326551,4.190262816
aubepierre ozouer le repos,48.619969635,2.903442764
aubepierre sur aube,47.910033866,4.950429067
auberchicourt,50.330054902,3.227859714
aubercourt,49.837846125,2.54719663
aubergenville,48.962720904,1.849559735
auberive,49.197613046,4.41139514
auberives en royans,45.064836884,5.311527202
auberives sur vareze,45.426920113,4.818873496
aubermesnil aux erables,49.808071013,1.568502033
aubermesnil beaumais,49.84749077,1.121516151
aubers,50.595955527,2.819846481
aubertin,43.271593919,-0.481135975
auberville,49.311209481,-0.026858295
auberville la manuel,49.829037912,0.5839606310000001
auberville la renault,49.686196824,0.378686192
aubervilliers,48.912490578,2.384529976
aubessagne,44.7447241,6.029953568
aubeterre,48.42255725,4.107741981
aubeterre sur dronne,45.2613898,0.168011789
aubiac,44.470399624,-0.244216121
aubiat,45.980481097,3.192670887
aubiere,45.751343023,3.125741102
aubiet,43.653489613,0.7845641320000001
aubignan,44.097613099,5.032124671
aubignas,44.585295618,4.633292283
aubigne,48.298830254,-1.630951186
aubigne racan,47.683980043,0.251033287
aubigne sur layon,47.212831163,-0.472930639
aubignosc,44.118653848,5.958246498
aubigny,48.91441854,-0.216070039
aubigny au bac,50.265730126,3.168315967
aubigny aux kaisnes,49.77240406,3.119507994
aubigny en artois,50.348030087,2.586612903
aubigny en laonnois,49.496989712,3.792304044
aubigny en plaine,47.127737411,5.164587968
aubigny la ronce,46.987850557,4.596664338
aubigny les clouzeaux,46.618064866,-1.480755751
aubigny les pothees,49.764699292,4.428330709
aubigny les sombernon,47.300601777,4.642182477
aubigny sur nere,47.486164074,2.420941587
aubilly,49.212893312,3.856323781
aubin,43.435661234,-0.421285836
aubin st vaast,50.387336679,1.963305066
aubinges,47.219271082,2.58579671
auboncourt vauzelles,49.556761097,4.482408475
aubonne,47.036991462,6.343774295
aubord,43.75155312,4.317357669
auboue,49.211177877,5.975027321
aubous,43.576370374,-0.140654787
aubres,44.389651661,5.154695909
aubreville,49.155207989,5.094361912
aubrives,50.087992721,4.766863717
aubrometz,50.302894169,2.175323338
aubry du hainaut,50.375804067,3.452108252
aubry le panthou,48.854652607,0.227575744
aubure,48.204806522,7.210750341
aubussargues,44.010151578,4.326632094
aubusson,48.779400201,-0.5538395810000001
aubusson d auvergne,45.753344684,3.599187212
aubvillers,49.708680947,2.479369976
auby,50.414188077,3.06131615
aucaleuc,48.451791839,-2.127617919
aucamville,43.671098898,1.423339488
aucazein,42.920698535,0.966276035
aucelon,44.617229624,5.354420073
aucey la plaine,48.5264794,-1.475526539
auch,43.653262773,0.574851022
auchay sur vendee,46.439099886,-0.869769173
auchel,50.510306095,2.468582104
auchonvillers,50.081860666,2.633263473
auchy au bois,50.550727223,2.373031259
auchy la montagne,49.573673747,2.119678451
auchy les hesdin,50.408857962,2.095513364
auchy les mines,50.506070754,2.78093375
auchy lez orchies,50.4807119,3.195203402
aucun,42.986144988,-0.20249015
audaux,43.372579306,-0.78004249
audelange,47.140516113,5.58435767
audeloncourt,48.115587457,5.532370558
audembert,50.858780606,1.690301403
audenge,44.714352189,-0.944019115
audes,46.461030035,2.559263936
audeux,47.258248301,5.868240246
audeville,48.2802788,2.242381438
audierne,48.027732606,-4.561426721
audignicourt,49.477827569,3.127371805
audignies,50.278525715,3.824724598
audignon,43.723399424,-0.591243221
audigny,49.866346754,3.631923253
audincourt,47.481277328,6.854544308
audincthun,50.578721065,2.127010942
audinghen,50.851903159,1.60804381
audon,43.799936284,-0.8241436010000001
audouville la hubert,49.416638017,-1.227927509
audrehem,50.77219097,1.98464836
audressein,42.930816184,1.01954447
audresselles,50.829276864,1.6110720710000002
audrieu,49.204733997,-0.604235877
audrix,44.882936302,0.94775039
audruicq,50.884506534,2.081422324
audun le roman,49.3675664,5.893688615
audun le tiche,49.458466739,5.957850421
auffargis,48.684172801,1.902908509
aufferville,48.204874802,2.601225988
auffreville brasseuil,48.954634274,1.705279672
auflance,49.615259032,5.29500668
auga,43.476826947,-0.37867134
augan,47.912505767,-2.267644551
auge,46.237114496,2.3322807020000003
augea,46.561977614,5.389704364
auger st vincent,49.212538687,2.813250031
augerans,47.02653742,5.584095141
augeres,46.080332166,1.727714905
augerolles,45.736948469,3.631261703
augers en brie,48.666829884,3.352562231
augerville la riviere,48.253272014,2.418897256
augicourt,47.770074882,5.891710575
augignac,45.583807454,0.7025395910000001
augirein,42.910788832,0.916933324
augisey,46.554958723,5.495274567
augnat,45.413969663,3.179736557
augnax,43.723860283,0.7732064190000001
augne,45.771422544,1.700846829
augny,49.055454696,6.116038961
auguaise,48.698642651,0.551905929
augy,47.770348922,3.621889871
augy sur aubois,46.783522366,2.857669475
aujac,45.847600034,-0.394327142
aujan mournede,43.375708811,0.5013244920000001
aujargues,43.791623554,4.127845915
aujeurres,47.738976709,5.172881641
aujols,44.424680262,1.541489114
aulan,44.229871632,5.421906115
aulas,43.998859255,3.586552689
aulhat flat,45.573867126,3.313179726
aullene,41.807022288,9.092922973
aulnat,45.793081262,3.170796502
aulnay,46.020547949,-0.347522782
aulnay l aitre,48.825586517,4.567723141
aulnay la riviere,48.208590147,2.373778032
aulnay sous bois,48.945834186,2.493478267
aulnay sur iton,48.993083768,1.054458018
aulnay sur marne,48.997100951,4.207587452
aulnay sur mauldre,48.928322262,1.840813007
aulnois,48.261569711,5.777290676
aulnois en perthois,48.635122347,5.126425246
aulnois sous laon,49.619869289,3.609481451
aulnois sur seille,48.86164836,6.328968024
aulnoy,48.848856082,3.089501816
aulnoy lez valenciennes,50.325973528,3.537508564
aulnoy sur aube,47.830732941,5.033388523
aulnoye aymeries,50.205851552,3.831955208
aulon,46.091781009,1.696034634
aulos sinsat,42.798791183,1.661676101
ault,50.092195715,1.447605345
aulus les bains,42.766542296,1.355768892
aulx les cromary,47.37543026,6.097724424
aumagne,45.880061579,-0.411554351
aumale,49.769397385,1.755249711
aumatre,49.921503101,1.773398798
aumelas,43.577640419,3.617426115
aumenancourt,49.385901179,4.058798715
aumerval,50.505062035,2.406809033
aumes,43.464103866,3.46917168
aumessas,44.011582398,3.513374248
aumetz,49.418321436,5.947174959
aumeville lestre,49.538654882,-1.322126478
aumont,46.916358761,5.633131722
aumont en halatte,49.233029457,2.55234087
aumur,47.060838342,5.336876125
aunac sur charente,45.924181889,0.246459345
aunat,42.789454051,2.100704742
aunay en bazois,47.124134471,3.719630112
aunay les bois,48.546542985,0.293434716
aunay sous auneau,48.442932748,1.813873957
aunay sous crecy,48.658008756,1.303823358
auneau bleury st symphorien,48.499642222,1.774108008
auneuil,49.372521717,1.988486259
aunou le faucon,48.719631668,0.055256711
aunou sur orne,48.606207533,0.238613922
auppegard,49.830608818,1.030542757
aups,43.624951741,6.221333281
aurade,43.55872631,1.073647383
auradou,44.340941105,0.814645897
auragne,43.3913849,1.509325842
auray,47.667479044,-2.990480599
aure,49.276544342,4.623488599
aure sur mer,49.337925344,-0.813852619
aurec sur loire,45.368683476,4.20442197
aureil,45.809313378,1.400814906
aureilhan,44.21210953,-1.189565415
aureille,43.699234246,4.945119894
aurel,44.692550127,5.298216219
aurensan,43.620354561,-0.202112447
aureville,43.480036328,1.457210877
auriac,45.200044596,2.139281096
auriac du perigord,45.112729348,1.127023157
auriac l eglise,45.264117915,3.126081615
auriac lagast,44.144144677,2.596046807
auriac sur dropt,44.654444743,0.24404682
auriac sur vendinelle,43.519455857,1.824858019
auriat,45.871292474,1.633941754
auribail,43.345779571,1.374908656
auribeau,43.829840255,5.447994919
auribeau sur siagne,43.612021484,6.911660116
aurice,43.803186809,-0.598653848
auriebat,43.499174133,0.087548189
aurieres,45.681621602,2.915832417
aurignac,43.214183069,0.8707775040000001
aurillac,44.92446829,2.441559986
aurimont,43.564959429,0.829106454
aurin,43.535751759,1.682186793
auriol,43.360824036,5.658498886
auriolles,44.736214169,0.044480651
aurions idernes,43.531558506,-0.130384634
auris,45.052383743,6.083826997
aurons,43.671408402,5.14893774
auros,44.507603076,-0.163539554
aurouer,46.682987694,3.3046023
auroux,44.757863595,3.72687095
aurseulles,49.133433609,-0.709216551
aussac,43.863411959,2.038670884
aussac vadalle,45.821724547,0.21579413
ausseing,43.15399165,1.031075733
aussevielle,43.358715384,-0.479622929
aussillon,43.49412169,2.355496678
aussois,45.255051384,6.728993587
ausson,43.091411388,0.589746966
aussonce,49.346131291,4.327083194
aussonne,43.683896724,1.328602945
aussos,43.375264706,0.6408301940000001
aussurucq,43.129267164,-0.97819363
autainville,47.884021785,1.420955866
autechaux,47.380245304,6.384779357
autechaux roide,47.389276318,6.810998645
auterive,43.580293916,0.63231772
auterrive,43.46599119,-1.009237385
autet,47.544962345,5.700656161
auteuil,49.344149401,2.092240406
autevielle st martin bideren,43.39577058,-0.977497213
authe,49.460103253,4.877701286
autheuil authouillet,49.100727136,1.295009631
autheuil en valois,49.179569949,3.063682034
autheux,50.139120515,2.232405363
authevernes,49.219144384,1.63344224
authezat,45.638632604,3.192452942
authie,49.205664142,-0.430859337
authieule,50.135993571,2.377984539
authieux ratieville,49.597797559,1.146201553
authiou,47.2653099,3.418866209
authoison,47.491945373,6.144675456
authon,44.249655912,6.15141069
authon du perche,48.185068167,0.888075735
authon ebeon,45.842116239,-0.426109531
authon la plaine,48.45380325,1.956173253
authou,49.225779947,0.6973308570000001
authuille,50.046474323,2.67643287
authume,47.125097086,5.5077556990000005
authumes,46.8894425,5.307337776
autichamp,44.683240066,4.972677118
autignac,43.500033193,3.167412624
autigny,49.795598761,0.8541131940000001
autigny la tour,48.415000446,5.780276843
autigny le grand,48.471738373,5.149043081
autigny le petit,48.48089684,5.151656894
autingues,50.841899853,1.986303301
autoire,44.858758089,1.825297832
autoreille,47.370631773,5.825293921
autouillet,48.844088345,1.797003757
autrac,45.336834191,3.129658841
autrans meaudre en vercors,45.168409526,5.545129361
autreche,47.522882609,1.002611735
autrechene,47.593000391,6.9623707370000005
autreches,49.448721765,3.127460381
autrecourt et pourron,49.606525783,5.019159972
autrecourt sur aire,49.031268595,5.140248286
autremencourt,49.70534608,3.793573722
autrepierre,48.607861049,6.79793423
autreppes,49.897099289,3.856002204
autreville,48.490217322,5.858556622
autreville st lambert,49.562995945,5.135098322
autreville sur la renne,48.125749831,4.976977815
autreville sur moselle,48.82866589,6.107530745
autrey,48.532031235,6.12666014
autrey le vay,47.536582373,6.396345332
autrey les cerre,47.613034745,6.345513789
autrey les gray,47.464665172,5.465439174
autricourt,47.993764115,4.6217353160000005
autruche,49.453708672,4.905358973
autruy sur juine,48.276846476,2.092334037
autry,49.265938045,4.831919498
autry issards,46.544480325,3.122484567
autry le chatel,47.595218242,2.601913658
autun,46.94596915,4.310661618
auty,44.188836349,1.469504852
auvare,44.006897162,6.915237642
auve,49.028734097,4.687052907
auvernaux,48.529457285,2.487702973
auvers,44.996780941,3.390584673
auvers le hamon,47.904162986,-0.345045966
auvers sous montfaucon,48.0009997,-0.075017943
auvers st georges,48.476771493,2.226441657
auvers sur oise,49.080695614,2.154663979
auvet et la chapelotte,47.507165522,5.525736079
auvillar,44.058674782,0.887457386
auvillars,49.197576123,0.075291645
auvillars sur saone,47.059080829,5.10874813
auvillers les forges,49.86643297,4.361004681
auvilliers,49.757677311,1.575784407
auvilliers en gatinais,47.965766087,2.491632842
aux aussat,43.441062134,0.263226317
aux marais,49.407490192,2.040700705
auxais,49.215737525,-1.305912287
auxange,47.177696691,5.654431375
auxant,47.130635408,4.620400352
auxelles bas,47.728971306,6.78386314
auxelles haut,47.750406571,6.779095967
auxerre,47.793807959,3.581678862
auxey duresses,46.98509228,4.731764999
auxi le chateau,50.230869722,2.117057277
auxon,47.694186575,6.15517234
auxonne,47.188769135,5.414341888
auxy,46.940700128,4.416986172
auzainvilliers,48.236391636,5.852510483
auzances,46.02659089,2.506152823
auzas,43.174912217,0.8943728550000001
auzat,42.70207511,1.443094286
auzat la combelle,45.450700916,3.325351022
auzebosc,49.601281448,0.7331734990000001
auzelles,45.606920465,3.518596109
auzers,45.276262008,2.464357598
auzet,44.305330708,6.310897275
auzeville tolosane,43.52873275,1.487290449
auzielle,43.539963905,1.568225843
auzits,44.499720985,2.322163792
auzon,45.387116293,3.378985849
auzouer en touraine,47.55398609,0.937030464
auzouville l esneval,49.632920201,0.8841659380000001
auzouville sur ry,49.437804584,1.309185992
auzouville sur saane,49.742650636,0.931726901
availles en chatellerault,46.756439041,0.569747444
availles limouzine,46.13421924,0.647622279
availles sur seiche,47.95811218,-1.185595694
availles thouarsais,46.854949732,-0.136682702
avajan,42.8472822,0.402519516
avallon,47.482445912,3.916288448
avancon,49.4807933,4.250853374
avanne aveney,47.201655108,5.9557621990000005
avant les marcilly,48.432494773,3.5600719620000003
avant les ramerupt,48.44848717,4.259305259
avanton,46.663897808,0.304605213
avapessa,42.559045538,8.893822971
avaray,47.725432481,1.554996126
avaux,49.465888218,4.068729619
aveize,45.679296842,4.475382112
aveizieux,45.569177903,4.378944786
avelanges,47.587189462,5.030540108
avelesges,49.903403966,1.931726841
avelin,50.53985223,3.085767467
aveluy,50.031160014,2.660056696
avenay,49.095792808,-0.465448599
avenay val d or,49.075875948,4.046250971
avene,43.748771385,3.104838669
avensac,43.830557992,0.901438229
avensan,45.005581236,-0.76076734
aventignan,43.062035977,0.523977443
averan,43.136195759,-0.001853962
averdoingt,50.344946325,2.44394614
averdon,47.68562865,1.301002824
avermes,46.598737396,3.318798217
avernes,49.091441006,1.866777119
avernes st gourgon,48.93653791,0.313633036
averon bergelle,43.756143717,0.066228934
averton,48.354205371,-0.210821918
avesnelles,50.106001155,3.951285957
avesnes,50.55160309,1.963011208
avesnes chaussoy,49.893396306,1.86418202
avesnes en bray,49.472956566,1.675958269
avesnes en saosnois,48.266122054,0.357684101
avesnes en val,49.917802494,1.407598192
avesnes le comte,50.271923846,2.528521903
avesnes le sec,50.248398277,3.371102726
avesnes les aubert,50.191247723,3.377144907
avesnes les bapaume,50.104323583,2.833113918
avesnes sur helpe,50.124362378,3.927144503
avessac,47.635166677,-1.970817978
avesse,47.957830661,-0.267448002
aveux,43.008463342,0.563235185
avezac prat lahitte,43.065408981,0.334878564
avezan,43.883200038,0.80119094
aveze,45.597264094,2.6060489540000003
avignon,43.935441391,4.841098248
avignon les st claude,46.401415232,5.841108907
avignonet,44.957494383,5.673337936
avignonet lauragais,43.377029787,1.773100106
avillers,49.322961066,5.737940375
avillers ste croix,49.034123929,5.703648158
avilley,47.429518431,6.269513397
avilly st leonard,49.183728013,2.527095281
avion,50.404027107,2.827110111
avioth,49.566531977,5.39088128
avirey lingey,48.027978301,4.296958202
aviron,49.056583825,1.11951494
avize,48.97337661,4.005795376
avocourt,49.203015845,5.142424732
avoine,48.671827281,-0.099849848
avoise,47.859656569,-0.193599216
avolsheim,48.560655695,7.493131262
avon,46.372322059,0.002864661
avon la peze,48.387554065,3.651967248
avon les roches,47.18289435,0.459774098
avondance,50.479524408,2.100129742
avord,47.031929318,2.665619438
avosnes,47.369100142,4.632784703
avot,47.616734359,5.007235333
avoudrey,47.138652357,6.433288543
avrainville,48.771878905,5.946277962
avranches,48.675600375,-1.34530386
avranville,48.418719005,5.535872703
avrechy,49.445048547,2.423716699
avrecourt,47.966796161,5.53454507
avree,46.823036422,3.878739759
avremesnil,49.849901124,0.933376819
avressieux,45.57124282,5.693678633
avreuil,48.052909852,3.998241863
avricourt,48.655893117,6.80445109
avrieux,45.177685095,6.746455792
avrigney virey,47.339400714,5.776013927
avrigny,49.389118576,2.576650629
avril,49.294241401,5.967685849
avril sur loire,46.808830067,3.362002419
avrille,47.505278971,-0.600595275
avrille les ponceaux,47.38822817,0.302499365
avrilly,48.536729905,-0.6174280480000001
avroult,50.631912899,2.145069745
avy,45.551593418,-0.508796961
awala yalimapo,5.684287994,-53.91736752
awoingt,50.153822757,3.285983043
ax les thermes,42.686666996,1.818050343
axat,42.797894818,2.240420594
axiat,42.799326321,1.760803165
ay champagne,49.051240672,4.040333792
ay sur moselle,49.247293085,6.196087738
ayat sur sioule,46.061493317,2.886130583
aydat,45.666617806,2.9843259360000003
aydie,43.570258712,-0.11352346
aydius,42.998678052,-0.51916004
aydoilles,48.210103044,6.571657061
ayen,45.254227666,1.324144735
ayencourt le monchel,49.626002213,2.550907271
ayette,50.169688028,2.732289034
ayguatebia talau,42.552758794,2.183279215
ayguemorte les graves,44.70279535,-0.483689925
ayguesvives,43.428705578,1.5943385280000002
ayguetinte,43.832603215,0.41902492
ayherre,43.379020017,-1.245531967
ayn,45.571652121,5.75016717
aynac,44.788360061,1.856856859
ayrens,44.991338263,2.323632517
ayron,46.643842095,0.044894953
ayros arbouix,43.001303102,-0.066080509
ayse,46.087240567,6.445889751
ayssenes,44.09243101,2.765698115
aytre,46.134449771,-1.114179784
ayzac ost,43.022926679,-0.092598803
ayzieu,43.85844041,-0.025361059
azannes et soumazannes,49.293424199,5.468050861
azas,43.720217665,1.674615883
azat chatenet,46.086541909,1.7695238130000002
azat le ris,46.307782725,1.057885584
azay le brule,46.404509953,-0.267811728
azay le ferron,46.846006864,1.081439439
azay le rideau,47.272804337,0.470162505
azay sur cher,47.334616835,0.845262904
azay sur indre,47.204076878,0.943169768
azay sur thouet,46.61889063,-0.356461733
aze,46.432164901,4.749239715
azelot,48.583910035,6.229028652
azerables,46.352673944,1.4752535
azerailles,48.497612988,6.694485216
azerat,45.353710712,3.398693507
azereix,43.208055636,-0.023178104
azet,42.778822387,0.359528658
azeville,49.457017695,-1.312584072
azillanet,43.323839061,2.745510698
azille,43.273886088,2.6567986340000003
azilone ampaza,41.870638716,9.016697474
azincourt,50.458667349,2.117071156
azolette,46.191827395,4.413937493
azoudange,48.730615186,6.822959982
azur,43.798516703,-1.295681847
azy,47.191899144,2.710476811
azy le vif,46.787936922,3.229806287
azy sur marne,49.004386609,3.359999375
azzana,42.112842887,8.931331876
baalon,49.482758388,5.258664895
baalons,49.601809848,4.666659115
babeau bouldoux,43.438188375,2.893011258
baboeuf,49.582404288,3.090989573
baby,48.389474863,3.344826108
baccarat,48.450247427,6.741033553
baccon,47.884481316,1.624247644
bach,44.346385583,1.680824306
bachant,50.207885916,3.875398829
bachas,43.24888453,0.940825398
bachos,42.89864973,0.603064272
bachy,50.543456761,3.2684365680000003
bacilly,48.704253925,-1.433025506
baconnes,49.164644318,4.338302135
bacouel,49.62143439,2.381494965
bacouel sur selle,49.83053124,2.194744504
bacourt,48.928349165,6.405856569
bacquepuis,49.090734039,1.04630818
bacqueville,49.321840594,1.366874481
bacqueville en caux,49.796193473,1.009950731
badailhac,44.914413347,2.628795568
badaroux,44.540281777,3.552826246
badecon le pin,46.532326495,1.60145191
badefols d ans,45.229272957,1.203894919
badefols sur dordogne,44.838931317,0.8006861470000001
baden,47.614999248,-2.903301929
badens,43.221245005,2.5050173840000003
badevel,47.501723856,6.938674361
badmenil aux bois,48.311400337,6.5241308490000005
badonviller,48.494852993,6.909910241
badonvilliers gerauvilliers,48.54420794,5.577196943
baerendorf,48.830181388,7.089385262
baerenthal,48.967717128,7.523131192
baffie,45.47675407,3.828344794
bagard,44.070336681,4.044108852
bagas,44.618872618,-0.048817187
bage dommartin,46.327468413,4.966993244
bage le chatel,46.308270333,4.9298452820000005
bagert,43.079639124,1.070089761
bages,43.11807108,2.977302146
bagiry,42.98020466,0.624001971
bagnac sur cele,44.662518421,2.148740694
bagneaux,48.254353785,3.592087895
bagneaux sur loing,48.223975472,2.707169842
bagneres de bigorre,42.979099288,0.08732179
bagneres de luchon,42.734956458,0.626968753
bagneux,47.167699142,1.756800232
bagneux la fosse,47.998956386,4.291272927
bagnizeau,45.900351472,-0.316112457
bagnoles,43.267903206,2.448968345
bagnoles de l orne normandie,48.566845776,-0.420728046
bagnolet,48.869038019,2.422697136
bagnols,45.498210855,2.638420695
bagnols en foret,43.533274119,6.708934374
bagnols sur ceze,44.162820271,4.624648799
bagnot,47.050381838,5.072658592
baguer morvan,48.504865519,-1.771688804
baguer pican,48.549892404,-1.691120364
baho,42.705913239,2.820082664
bahus soubiran,43.672472118,-0.344976318
baie mahault,16.251665323,-61.592056124
baigneaux,48.128320508,1.819826259
baignes,47.580306804,6.047264631
baignes ste radegonde,45.374635878,-0.254013152
baigneux les juifs,47.600910696,4.651478467
baigts,43.68757691,-0.7928111320000001
baigts de bearn,43.524368801,-0.846362703
baillargues,43.658511399,4.010394149
bailleau armenonville,48.526932725,1.647988328
bailleau l eveque,48.487660782,1.396772193
bailleau le pin,48.359419105,1.322932875
baillestavy,42.564618562,2.521683366
baillet en france,49.058629716,2.302373577
bailleul,48.810872844,-0.023293032
bailleul aux cornailles,50.373136511,2.448310391
bailleul la vallee,49.196580145,0.432379377
bailleul le soc,49.421043386,2.584138766
bailleul les pernes,50.507864151,2.379680443
bailleul neuville,49.809257231,1.4214420410000002
bailleul sir berthoult,50.335768522,2.844211358
bailleul sur therain,49.385226141,2.230925343
bailleulmont,50.211162659,2.604975331
bailleulval,50.222484788,2.626363576
bailleval,49.349411676,2.46614743
baillif,16.045477147,-61.719040285
baillolet,49.789623609,1.431613421
baillou,47.983560159,0.8531942090000001
bailly,49.499270345,2.982496823
bailly aux forges,48.45475603,4.905650613
bailly en riviere,49.907863986,1.350129688
bailly le franc,48.523320858,4.659298521
bailly romainvilliers,48.843284,2.816534553
bain de bretagne,47.830230111,-1.676337044
baincthun,50.70176624,1.712976368
bainghen,50.750756832,1.902496038
bains,44.996152841,3.763372782
bains sur oust,47.712200336,-2.075624016
bainville aux miroirs,48.436495262,6.283109161
bainville aux saules,48.207901623,6.132964824
bainville sur madon,48.589709897,6.0873686
bairols,43.98717203,7.119553338
bairon et ses environs,49.508821336,4.756360615
bais,48.011079769,-1.305387481
baisieux,50.610931234,3.241371993
baissey,47.748689803,5.249891613
baives,50.066605232,4.203953007
baix,44.706668959,4.750768158
baixas,42.745702722,2.805480492
baizieux,49.991041949,2.512769987
bajamont,44.258534074,0.7017673830000001
bajonnette,43.81023044,0.7661227580000001
bajus,50.420797206,2.472109472
balacet,42.887117793,0.98278804
baladou,44.924297757,1.554982765
balagny sur therain,49.297043738,2.322012271
balagueres,42.967660998,1.017477618
balaguier d olt,44.518538656,1.977361508
balaguier sur rance,43.895967955,2.576530527
balaiseaux,46.967810087,5.461616899
balan,45.830979009,5.108003865
balanod,46.455826956,5.350357186
balansun,43.49170176,-0.6931366080000001
balanzac,45.748228483,-0.8441311570000001
balaruc le vieux,43.465795991,3.697143997
balaruc les bains,43.446940785,3.690700903
balatre,49.711168267,2.865066626
balaze,48.177906445,-1.183241566
balazuc,44.508690596,4.372446244
balbigny,45.829232104,4.183817204
balbronn,48.582695556,7.404107826
baldenheim,48.244377815,7.535373812
baldersheim,47.798506316,7.415223856
baleix,43.376501467,-0.135523187
balesta,43.202046025,0.56314918
baleyssagues,44.682122855,0.149490551
balgau,47.927153819,7.532532901
balham,49.491291555,4.151408539
balignac,43.956003421,0.8740986230000001
balignicourt,48.529129651,4.454675364
balines,48.748355848,0.978374383
balinghem,50.860364003,1.939384423
baliracq maumusson,43.541588605,-0.249990102
baliros,43.228772714,-0.308237797
balizac,44.486209313,-0.448479395
ballainvilliers,48.671671562,2.289258475
ballaison,46.293505442,6.344432391
ballan mire,47.337379778,0.601962427
ballancourt sur essonne,48.522122216,2.388041851
ballans,45.80807563,-0.225251579
ballay,49.421846706,4.750292905
balledent,46.108352688,1.216687524
balleroy sur drome,49.195275156,-0.8374323850000001
ballersdorf,47.620060801,7.156038655
balleville,48.334550404,5.847154434
ballon,46.053206691,-0.973106757
ballon st mars,48.171374585,0.252619854
ballons,44.251374321,5.644307971
ballore,46.534248893,4.375672162
ballots,47.904376328,-1.058890987
balloy,48.397093788,3.151318742
balma,43.611071117,1.504681785
balnot la grange,47.988635213,4.198162523
balnot sur laignes,48.036819397,4.352809918
balogna,42.187366095,8.754098668
balot,47.820029859,4.443301338
balschwiller,47.673204627,7.162839452
balsieges,44.475949677,3.441068288
baltzenheim,48.098839002,7.553535695
balzac,45.712202634,0.133797922
bambecque,50.908981137,2.560564744
bambiderstroff,49.101146884,6.596800002
ban de laveline,48.227997281,7.084236412
ban de sapt,48.343273363,7.01608999
ban sur meurthe clefcy,48.127029901,6.975417843
banassac canilhac,44.430547737,3.170364601
banca,43.100075474,-1.371497986
bancigny,49.798022992,4.036526042
bancourt,50.101207511,2.889832837
bandol,43.147802391,5.747556336
bandraboua,-12.723466002,45.117966754
bandrele,-12.934333691,45.169235716
baneins,46.114061723,4.901684997
baneuil,44.852774255,0.693323954
bangor,47.313069437,-3.192784025
banios,43.037757903,0.228714392
banize,45.936484064,1.99792556
bannalec,47.935239103,-3.695213554
bannans,46.898959119,6.238381747
bannay,47.383306106,2.872936943
banne,44.36127618,4.151088119
bannegon,46.806821613,2.7277189230000003
bannes,44.81396644,1.918298979
banneville la campagne,49.16878947,-0.223474344
bannieres,43.619201383,1.757775005
bannoncourt,48.953165197,5.483439435
bannost villegagnon,48.675542321,3.19174446
banogne recouvrance,49.570655686,4.132933799
banon,44.026971873,5.649836991
banos,43.730468969,-0.6212452540000001
bans,46.982403501,5.580664055
bansat,45.483010289,3.361393534
bantanges,46.605029717,5.120685971
banteux,50.065745668,3.188109612
banthelu,49.125991196,1.815132958
bantheville,49.352939449,5.073702544
bantigny,50.233759527,3.235436892
bantouzelle,50.058763584,3.224706004
bantzenheim,47.822693965,7.502758417
banvillars,47.591029812,6.81327881
banville,49.309711023,-0.485841245
banvou,48.66406921,-0.55664944
banyuls dels aspres,42.565095483,2.866586528
banyuls sur mer,42.461363072,3.099584052
baon,47.861694527,4.137818375
baons le comte,49.639225838,0.7619808680000001
bapaume,50.10075167,2.856156398
bar,45.342753771,1.815150883
bar le duc,48.764281504,5.163287429
bar les buzancy,49.446027985,4.957194987
bar sur aube,48.23419199,4.715784302
bar sur seine,48.113354358,4.378933349
barace,47.642778877,-0.357759055
baraigne,43.330657967,1.822818128
baraize,46.480832248,1.570100189
baralle,50.213814406,3.056709054
baraqueville,44.281316706,2.449484143
barastre,50.071603757,2.938504591
baratier,44.504348928,6.50566626
barbachen,43.428593449,0.126116314
barbaggio,42.684031526,9.368384015
barbaira,43.175148932,2.514470618
barbaise,49.676518341,4.579500889
barbas,48.570790327,6.849550079
barbaste,44.158652882,0.24426612
barbatre,46.932317911,-2.166791492
barbazan,43.034398564,0.622320584
barbazan debat,43.201622324,0.129515885
barbazan dessus,43.164194331,0.143367014
barbentane,43.894767545,4.749594272
barberaz,45.552249906,5.939231219
barberey st sulpice,48.327005914,4.016446268
barberier,46.219468651,3.248864403
barbery,49.014526544,-0.345039875
barbeville,49.273989418,-0.754177324
barbey,48.366051746,3.049435365
barbey seroux,48.131288406,6.847040772
barbezieres,45.91183591,-0.088525287
barbezieux st hilaire,45.477722054,-0.157623473
barbieres,44.940330467,5.162181981
barbirey sur ouche,47.252354232,4.740516493
barbizon,48.448347603,2.600809608
barbonne fayel,48.654034333,3.687763843
barbonville,48.550157308,6.355278689
barbuise,48.550969223,3.561834503
barby,45.569503783,5.982089614
barc,49.079599373,0.824625668
barcelonne,44.867074421,5.054652574
barcelonne du gers,43.693135122,-0.212697773
barcelonnette,44.379016563,6.651674481
barchain,48.708395364,6.95722546
barcillonnette,44.430111214,5.905139193
barcugnan,43.374417679,0.397971265
barcus,43.177321727,-0.794750083
barcy,49.017438161,2.87651307
bard,45.59259355,3.998202233
bard le regulier,47.146276905,4.30158502
bard les epoisses,47.528381461,4.224507103
bard les pesmes,47.278128938,5.627895735
bardenac,45.30022378,-0.015074553
bardigues,44.030040044,0.891353385
bardos,43.468021686,-1.223183326
bardou,44.741010251,0.687257652
bardouville,49.43327408,0.923661622
bareges,42.877604692,0.113940731
bareilles,42.891101775,0.436817893
barembach,48.467062027,7.243220168
baren,42.86769951,0.634868391
barentin,49.545389969,0.957106015
barenton,48.608250516,-0.8305346210000001
barenton bugny,49.622089709,3.661783996
barenton cel,49.647693941,3.645155045
barenton sur serre,49.66784668,3.690732262
baresia sur l ain,46.542556338,5.702967812
barfleur,49.668241753,-1.264220249
bargeme,43.729949565,6.571045401
bargemon,43.633547435,6.542512889
barges,47.209301901,5.059598976
bargny,49.177533546,2.956970104
barguelonne en quercy,44.372127311,1.250704684
barie,44.571200244,-0.111842767
barinque,43.403925803,-0.269783386
barisey au plain,48.52325399,5.852552331
barisey la cote,48.545596459,5.843383456
barisis aux bois,49.577527949,3.32757202
barizey,46.79161217,4.671751624
barjac,43.062358722,1.134894033
barjols,43.552469485,5.987665857
barjon,47.616311744,4.962156157
barjouville,48.406675811,1.472289748
barles,44.272819381,6.253258479
barlest,43.150254801,-0.095062113
barleux,49.897790954,2.893024441
barlieu,47.493819367,2.622779571
barlin,50.456732103,2.615155103
barly,50.24852538,2.5385701860000003
barmainville,48.258823903,1.954238893
barnas,44.668906703,4.159480586
barnave,44.657417517,5.36704127
barnay,47.085347138,4.32127509
barneville carteret,49.3806065,-1.769859381
barneville la bertran,49.390760585,0.181226853
barneville sur seine,49.384214168,0.8549794460000001
baromesnil,49.985461539,1.41265878
baron,46.493439086,4.281473124
baron sur odon,49.128579809,-0.482012808
baronville,48.938013786,6.614630283
barou en auge,48.93040438,-0.03887062
baroville,48.183374438,4.740890209
barquet,49.039591261,0.8538442730000001
barr,48.414931301,7.398340294
barrais bussolles,46.280847376,3.713157518
barran,43.622100051,0.448531126
barrancoueu,42.909947353,0.325405416
barras,44.100626374,6.098443052
barraute camu,43.383577961,-0.901204908
barraux,45.435780833,5.980575411
barre,43.743212918,2.815348232
barre des cevennes,44.254126207,3.671183432
barreme,43.946018481,6.377964622
barret,45.488987184,-0.205863196
barret de lioure,44.175483103,5.516253783
barret sur meouge,44.264869824,5.728391419
barretaine,46.810456621,5.7175834
barrettali,42.87317892,9.360533263
barriac les bosquets,45.147258328,2.265770027
barro,46.004610701,0.234689604
barrou,46.881396484,0.77475763
barry,43.13854288,0.020248698
barry d islemade,44.072940359,1.25334365
bars,45.094988704,1.051050205
barsac,44.726373096,5.304155411
barst,49.066970867,6.828174512
bart,47.491266704,6.767638396
bartenheim,47.636548108,7.48800403
barthe,43.286400999,0.476766176
bartherans,47.037455001,5.92507416
bartres,43.13297307,-0.054510034
barville,48.472627925,0.346947653
barville en gatinais,48.111868032,2.399123159
barzan,45.51136344,-0.886673342
barzun,43.215736223,-0.133141459
barzy en thierache,50.039756081,3.749280061
barzy sur marne,49.091339484,3.561668993
bas en basset,45.315745385,4.104749828
bas et lezat,46.036972752,3.308471929
bas lieu,50.144641113,3.951470807
bas mauco,43.793929785,-0.556169197
bascons,43.830372047,-0.425366621
bascous,43.794434627,0.13617669
baslieux,49.437537217,5.751068333
baslieux les fismes,49.324798127,3.713911627
baslieux sous chatillon,49.122084173,3.795129174
basly,49.27732115,-0.424047148
bassac,45.665341443,-0.099257171
bassan,43.408679473,3.255403645
bassanne,44.560485975,-0.093133565
basse goulaine,47.212054775,-1.462261066
basse ham,49.376050399,6.237680932
basse pointe,14.841235918,-61.123622312
basse rentgen,49.49015044,6.203137642
basse sur le rupt,47.986598667,6.767909597
basse terre,16.000240586,-61.728473493
bassemberg,48.335874686,7.277733134
basseneville,49.206607164,-0.13468194
bassens,45.5815294,5.938158842
bassercles,43.558664699,-0.61037532
basses,47.044791395,0.124053872
basseux,50.229440697,2.647034933
bassevelle,48.92324295,3.282099602
bassignac,45.315391259,2.400258834
bassignac le bas,45.024946243,1.868976258
bassignac le haut,45.199611259,2.067163271
bassigney,47.824843036,6.183214637
bassillac et auberoche,45.16148637,0.88523613
bassillon vauze,43.452817028,-0.076325582
bassing,48.872575364,6.800279308
bassoles aulers,49.533310631,3.384826586
bassoncourt,48.072764638,5.557295075
bassou,47.9230872,3.508070237
bassoues,43.575302789,0.250774653
bassu,48.834510728,4.6932560500000005
bassuet,48.80194358,4.670031963
bassurels,44.15823496,3.605545403
bassussarry,43.443744337,-1.495863197
bassy,45.991798493,5.82800495
bastanes,43.352025493,-0.7541474020000001
bastelica,41.988202996,9.048770899
bastelicaccia,41.935379337,8.836589723
bastennes,43.650305357,-0.77783955
bastia,42.686420533,9.425134055
basville,45.857956938,2.41236096
bathelemont,48.69386029,6.527586817
bathernay,45.183429046,4.998168321
batilly,49.176693114,5.969546043
batilly en gatinais,48.083410302,2.369309845
batilly en puisaye,47.61129414,2.885198507
bats,43.653676921,-0.4643876999999999
batsere,43.059975361,0.283731509
battenans les mines,47.405019372,6.27291229
battenans varin,47.241932361,6.715310844
battenheim,47.818443257,7.415488153
battexey,48.389943958,6.181207795
battigny,48.444558226,5.984558654
battrans,47.427408659,5.641863065
batz sur mer,47.280534812,-2.467053273
batzendorf,48.78195022,7.710188548
baubigny,46.989400116,4.681784849
baud,47.875553114,-3.030708242
baudement,48.578853114,3.767980393
baudemont,46.293446713,4.284940917
baudignan,44.088262004,0.038765537
baudinard sur verdon,43.713641032,6.133621041
baudoncourt,47.775434757,6.34369778
baudonvilliers,48.688451361,5.005883076
baudre,49.087916334,-1.069158004
baudrecourt,48.394602875,4.967630355
baudreix,43.205783987,-0.258534903
baudremont,48.837571529,5.393548665
baudres,47.052443247,1.572692135
baudreville,48.326240521,1.889367566
baudricourt,48.309419203,6.057322926
baudrieres,46.666213607,5.001726033
bauduen,43.715553173,6.202629896
bauge en anjou,47.566270346,-0.102419344
baugy,46.3075683,4.032527924
baulay,47.788171282,6.016057136
baule,47.810585322,1.66847071
baulme la roche,47.347733364,4.793730043
baulne,48.495262414,2.381133504
baulny,49.265981147,5.024189624
baulon,47.994959683,-1.929406329
baulou,43.017685603,1.5419448020000002
baume les dames,47.354300319,6.34312446
baume les messieurs,46.704885976,5.645389363
baupte,49.309892762,-1.367825812
baurech,44.726999168,-0.433888998
bauvin,50.515851898,2.893236267
bauzemont,48.67147027,6.531583851
bauzy,47.529565614,1.610991207
bavans,47.483488625,6.725023538
bavay,50.293413053,3.802751492
bavelincourt,50.000547404,2.449914761
bavent,49.22635274,-0.182748048
baverans,47.105995408,5.536574226
bavilliers,47.620053019,6.830976029
bavinchove,50.774762846,2.440424532
bavincourt,50.22362156,2.564472667
bax,43.224931135,1.288563542
bay,47.294753772,5.714931166
bay sur aube,47.823840956,5.060982682
bayac,44.8049311,0.722594355
bayard sur marne,48.549934134,5.068314943
bayas,45.06769966,-0.209476132
baye,47.85584953,-3.613231761
bayecourt,48.270586862,6.492314772
bayel,48.1922308,4.790864127
bayencourt,50.131329605,2.57258927
bayenghem les eperlecques,50.806264852,2.116661611
bayenghem les seninghem,50.705007718,2.076014045
bayet,46.257799091,3.276444635
bayeux,49.277826763,-0.7051522170000001
bayon,48.479649051,6.320546622
bayon sur gironde,45.043228388,-0.610155039
bayonne,43.492328407,-1.466026395
bayons,44.325166073,6.172891445
bayonville,49.396579203,5.011205414
bayonville sur mad,49.016216002,5.997083528
bayonvillers,49.864019008,2.62951107
bazac,45.220838357,0.036033218
bazaiges,46.484109137,1.527927867
bazailles,49.40918075,5.765518002
bazainville,48.806956033,1.667004597
bazancourt,49.370411523,4.174387365
bazarnes,47.660194657,3.643704585
bazas,44.442264809,-0.212831412
bazauges,45.916971928,-0.163719013
bazegney,48.26603213,6.231614535
bazeilles,49.717119842,5.028978798
bazeilles sur othain,49.50081309,5.426526938
bazelat,46.350787839,1.53206591
bazemont,48.931891093,1.873892315
bazens,44.268073985,0.427606616
bazentin,50.029779165,2.7671289210000003
bazenville,49.300490776,-0.584913937
bazet,43.290187132,0.07597323
bazian,43.668631721,0.317221566
bazicourt,49.343059587,2.622736181
baziege,43.462320693,1.628072348
bazien,48.414417593,6.675718989
bazillac,43.359855292,0.110628882
bazincourt sur epte,49.325664964,1.758152871
bazincourt sur saulx,48.687170708,5.140508909
bazinghen,50.831357621,1.658443102
bazinval,49.948453195,1.547610584
bazoches,47.368940058,3.794303602
bazoches au houlme,48.829102315,-0.263863198
bazoches en dunois,48.094426044,1.571541145
bazoches et st thibaut,49.30645766,3.615341588
bazoches les bray,48.397966957,3.192886258
bazoches les gallerandes,48.162482561,2.051332219
bazoches les hautes,48.15998258,1.820736715
bazoches sur guyonne,48.773657449,1.851785524
bazoches sur hoene,48.550808471,0.47054971
bazoches sur le betz,48.132831749,2.990118353
bazoges en paillers,46.921240959,-1.14368986
bazoges en pareds,46.660329954,-0.914102785
bazoilles et menil,48.259111181,6.10377554
bazoilles sur meuse,48.301474733,5.650457113
bazolles,47.145492722,3.607838157
bazoncourt,49.057380105,6.38476613
bazoques,49.170994954,0.5504356490000001
bazordan,43.221758392,0.548169911
bazougers,48.026263755,-0.5934151040000001
bazouges cre sur loir,47.675719201,-0.160307403
bazouges la perouse,48.440633568,-1.5635969950000002
bazuel,50.081957712,3.595479749
bazugues,43.451660489,0.341238981
bazus,43.735579664,1.519996064
bazus aure,42.856429445,0.345882536
bazus neste,43.031261558,0.387260596
bealcourt,50.196878131,2.182444651
bealencourt,50.436312651,2.124961031
beard,46.869610937,3.326750406
beard geovreissiat,46.189954141,5.551650441
beaubec la rosiere,49.646775138,1.515488401
beaubery,46.410093391,4.395167329
beaubray,48.910731361,0.9005451820000001
beaucaire,43.836846829,0.376241412
beaucamps le jeune,49.817175198,1.771079453
beaucamps le vieux,49.843935027,1.777135811
beaucamps ligny,50.606252474,2.914387437
beauce,48.346757826,-1.155558635
beauce la romaine,47.937356169,1.461779181
beaucens,42.951858827,0.022877422
beauchalot,43.114061037,0.8698364380000001
beauchamp,49.015006767,2.191756994
beauchamps,48.836701722,-1.367179544
beauchamps sur huillard,47.9438512,2.454656525
beauchastel,44.829799932,4.79764727
beauche,48.67772251,0.980289445
beauchemin,47.917924725,5.248087854
beauchene,47.942830971,0.971085375
beauchery st martin,48.602164551,3.420786944
beauclair,49.448315973,5.110233646
beaucoudray,48.96168516,-1.143468946
beaucourt,47.486617731,6.925251681
beaucourt en santerre,49.797300008,2.585837738
beaucourt sur l ancre,50.085136282,2.684048186
beaucourt sur l hallue,49.998618243,2.427563273
beaucouze,47.474460282,-0.634619159
beaucroissant,45.342235283,5.468091501
beaudean,42.993163636,0.137233068
beaudeduit,49.679019305,2.05877811
beaudignies,50.229465312,3.585373723
beaudricourt,50.251498102,2.407196716
beaufai,48.755465999,0.511517687
beaufay,48.142386242,0.342652088
beauficel,48.742786232,-0.962012826
beauficel en lyons,49.40462201,1.524606486
beaufin,44.787134828,5.9590413820000006
beaufort,45.329269111,5.116240746
beaufort blavincourt,50.275610844,2.486429708
beaufort en anjou,47.440938585,-0.210354734
beaufort en argonne,49.479880034,5.10822936
beaufort en santerre,49.781649568,2.661666861
beaufort orbagna,46.585163377,5.434623271
beaufort sur doron,45.686223923,6.604095517
beaufort sur gervanne,44.777729117,5.149207515
beaufou,46.81910763,-1.524880755
beaufour druval,49.213838014,0.023586672
beaufremont,48.254024425,5.745706013
beaugas,44.511535754,0.6236152660000001
beaugeay,45.870410083,-1.008196772
beaugency,47.778290919,1.639363119
beaugies sous bois,49.637193116,3.099702897
beaujeu,46.15694561,4.58380145
beaujeu et quitteur,47.498791396,5.6930678310000005
beaulencourt,50.072823763,2.86984609
beaulieu,47.725468508,4.733641886
beaulieu en argonne,49.043991227,5.03920438
beaulieu les fontaines,49.665420606,2.910570081
beaulieu les loches,47.1287716,1.023115656
beaulieu sous la roche,46.687381349,-1.623689506
beaulieu sous parthenay,46.577313155,-0.208317123
beaulieu sur dordogne,45.000227689,1.832545707
beaulieu sur layon,47.3184114,-0.600350805
beaulieu sur loire,47.535547041,2.802550154
beaulieu sur mer,43.708203698,7.331518399
beaulieu sur oudon,47.992180752,-0.988189789
beaulieu sur sonnette,45.92707207,0.372891403
beaulon,46.587402632,3.669109032
beaumais,48.898949749,-0.071444346
beaumarches,43.586627321,0.106472683
beaume,49.820841965,4.151946912
beaumenil,48.171480696,6.722168757
beaumerie st martin,50.446302519,1.796429973
beaumes de venise,44.12360044,5.028693813
beaumesnil,48.896750445,-0.969441376
beaumettes,43.863322627,5.203026546
beaumetz,50.134779791,2.109860854
beaumetz les aire,50.544050567,2.219760259
beaumetz les cambrai,50.125723007,2.987012942
beaumetz les loges,50.245703965,2.659117112
beaumont,44.542472776,4.171723293
beaumont de lomagne,43.876879865,1.010390596
beaumont de pertuis,43.737407377,5.696119266
beaumont du gatinais,48.140602309,2.492263922
beaumont du lac,45.771556523,1.855286081
beaumont du ventoux,44.182508183,5.213201099
beaumont en argonne,49.527897865,5.035286262
beaumont en auge,49.267587855,0.110253177
beaumont en beine,49.687873482,3.131935625
beaumont en cambresis,50.127271334,3.451693886
beaumont en diois,44.563705904,5.470716574
beaumont en verdunois,49.261785827,5.409714176
beaumont en veron,47.194227285,0.186341858
beaumont hamel,50.076980943,2.659744604
beaumont la ferriere,47.183494728,3.235449273
beaumont le hareng,49.663115016,1.22019309
beaumont le roger,49.059418057,0.7540197550000001
beaumont les autels,48.240236864,0.952635972
beaumont les randan,45.996096246,3.383636429
beaumont les valence,44.874058974,4.946774356
beaumont louestault,47.579990678,0.6669714710000001
beaumont monteux,45.033176004,4.921702639
beaumont pied de boeuf,47.908255913,-0.440551551
beaumont sardolles,46.934979962,3.397231152
beaumont st cyr,46.730965017,0.453060754
beaumont sur deme,47.687285365,0.5794213020000001
beaumont sur grosne,46.669591197,4.861432483
beaumont sur leze,43.379717231,1.356256603
beaumont sur oise,49.140404504,2.30024802
beaumont sur sarthe,48.224415242,0.112278233
beaumont sur vesle,49.173793407,4.179883375
beaumont sur vingeanne,47.462096204,5.347585709
beaumont village,47.179856206,1.204532791
beaumontel,49.095578177,0.7809136590000001
beaumontois en perigord,44.736243738,0.7545233100000001
beaumotte aubertans,47.434651932,6.160687282
beaumotte les pin,47.318234239,5.832356916
beaunay,48.877088703,3.884770761
beaune,47.025576567,4.837332378
beaune d allier,46.272555304,2.891108384
beaune la rolande,48.074386017,2.429698408
beaune sur arzon,45.288405041,3.820780117
beaunotte,47.681496939,4.716736667
beaupont,46.428649695,5.260337095
beaupouyet,44.996624008,0.285148615
beaupreau en mauges,47.197135938,-0.956904052
beaupuy,44.532607441,0.145286888
beauquesne,50.080956994,2.375627306
beaurain,50.177323498,3.551198993
beaurains,50.258588079,2.789804885
beaurains les noyon,49.607394062,2.975278703
beaurainville,50.42041917,1.903577876
beaurecueil,43.521870777,5.546077752
beauregard,46.000721971,4.756657208
beauregard baret,45.006414551,5.17643719
beauregard de terrasson,45.155888357,1.227838963
beauregard et bassac,44.993732227,0.632648667
beauregard l eveque,45.81426247,3.298525224
beauregard vendon,45.965754398,3.113465572
beaurepaire,45.336603169,5.043585138
beaurepaire en bresse,46.667666225,5.393996689
beaurepaire sur sambre,50.060353764,3.796928421
beaurevoir,49.996670013,3.330066029
beaurieres,44.560126656,5.553853155
beaurieux,49.402093342,3.752392574
beauronne,45.100721273,0.3622363
beausemblant,45.212549082,4.840279434
beausite,48.967332293,5.212886121
beausoleil,43.747692843,7.421685673
beaussais sur mer,48.560466315,-2.136524705
beaussais vitre,46.282500823,-0.170398137
beaussault,49.68968218,1.575220158
beauteville,43.349039255,1.733433717
beautheil saints,48.763240732,3.076987933
beautiran,44.703452285,-0.459579977
beautor,49.648276469,3.338127887
beautot,49.636691621,1.046802691
beauvain,48.620155183,-0.302797482
beauvais,49.436197631,2.086359455
beauvais sur matha,45.893677517,-0.179558846
beauvais sur tescou,43.897563757,1.57238442
beauval,50.108209962,2.328713293
beauval en caux,49.73917251,1.025336807
beauvallon,45.591799412,4.70343559
beauvene,44.869254781,4.511902169
beauvernois,46.841177679,5.440191545
beauvezer,44.14408455,6.597855502
beauville,44.274907634,0.8971076610000001
beauvilliers,47.413340513,4.036179251
beauvoir,47.79210701,3.380475872
beauvoir de marc,45.519590913,5.080119636
beauvoir en lyons,49.484335136,1.582205735
beauvoir en royans,45.117166294,5.350779081
beauvoir sur mer,46.908371715,-2.064139902
beauvoir sur niort,46.180926562,-0.473316332
beauvoir wavans,50.215980029,2.165137865
beauvois,50.373955146,2.233548293
beauvois en cambresis,50.140458933,3.384639714
beauvois en vermandois,49.83415186,3.103106259
beauvoisin,44.3008798,5.212851792
beaux,45.194193255,4.082225569
beauzac,45.256703217,4.092966935
beauzelle,43.667078899,1.37410331
beauziac,44.313370517,0.032249262
bebing,48.722102302,6.991617471
beblenheim,48.15933058,7.341326716
bec de mortagne,49.704728005,0.44915586
beccas,43.432403748,0.156517098
beceleuf,46.479724942,-0.5095430940000001
bechamps,49.213788406,5.742123613
becherel,48.2962972,-1.942863634
becheresse,45.501515595,0.078104059
bechy,48.983041718,6.386030142
becon les granits,47.499442465,-0.7994380090000001
becordel becourt,49.996607857,2.687664404
becourt,50.639749096,1.902633706
becquigny,50.016098444,3.459927294
bedarieux,43.612734226,3.166249797
bedarrides,44.048012659,4.907946161
beddes,46.60794717,2.209982646
bedechan,43.573672463,0.7915358870000001
bedee,48.18675058,-1.950020714
bedeilhac et aynat,42.879821581,1.567667064
bedeille,43.083738717,1.101001265
bedenac,45.185560306,-0.312664578
bedoin,44.137350993,5.234739322
bedoues cocures,44.348550138,3.6391913
bedous,43.005739798,-0.588571032
beduer,44.571239136,1.927503701
beffes,47.092824083,3.001078523
beffia,46.531206963,5.548245485
beffu et le morthomme,49.372047529,4.891675328
begaar,43.829279264,-0.8556455270000001
begadan,45.374959773,-0.8770703150000001
beganne,47.602737037,-2.244241601
begard,48.634782583,-3.291535083
begles,44.801902738,-0.54826001
begnecourt,48.209544443,6.163846285
begole,43.159802534,0.319629193
begrolles en mauges,47.133763131,-0.931844878
begues,46.122718657,3.141968722
beguey,44.649226183,-0.325622665
beguios,43.35134505,-1.097906177
behagnies,50.141947751,2.827534408
behasque lapiste,43.318756894,-1.008273251
behen,50.051382922,1.761945992
behencourt,49.973790011,2.468942336
behericourt,49.598347176,3.063615629
behonne,48.798383115,5.175239413
behorleguy,43.120133523,-1.084904769
behoust,48.832260315,1.724583079
behren les forbach,49.167774281,6.942872734
behuard,47.381809953,-0.640889598
beignon,47.965835344,-2.180339896
beille,48.084165496,0.510079633
beine,47.816672427,3.72360549
beine nauroy,49.245638792,4.239076786
beinheim,48.854922932,8.091203107
beire le chatel,47.417985549,5.213578936
beire le fort,47.238028183,5.260939938
beissat,45.764514292,2.283819699
bel air val d ance,44.843139505,3.629501512
belabre,46.555616938,1.161931528
belan sur ource,47.95175427,4.638292812
belarga,43.553938894,3.499355887
belaye,44.451161276,1.19023282
belberaud,43.503531598,1.570483789
belbeuf,49.385138213,1.138766092
belbeze de lauragais,43.437821744,1.556246095
belbeze en comminges,43.134072374,1.029758839
belbeze en lomagne,43.905716135,1.06947496
belcaire,42.831295546,1.945637123
belcastel,44.394022889,2.330426429
belcastel et buc,43.027975261,2.34924495
belcodene,43.421806693,5.584397782
belesta,42.89340096,1.952847818
belesta en lauragais,43.439654952,1.83183532
beleymas,44.987102988,0.490929171
belfahy,47.7869005,6.731425644
belfays,47.259422245,6.904382681
belflou,43.319179874,1.796631395
belfonds,48.610863668,0.107322638
belforet en perche,48.391030355,0.522352245
belfort,47.64696911,6.845198706
belfort du quercy,44.268994959,1.5497729370000002
belfort sur rebenty,42.829966046,2.049795436
belgeard,48.251870319,-0.56021179
belgentier,43.239831488,5.996173887
belgodere,42.608071388,9.014172599
belhade,44.372576338,-0.684909729
belhomert guehouville,48.505952169,1.050953535
beligneux,45.859311798,5.140369014
belin beliet,44.486093168,-0.7863751670000001
belis,44.062036429,-0.466749636
bellac,46.104614928,1.041337031
bellaffaire,44.404191941,6.194438419
bellaing,50.365331242,3.425724229
bellancourt,50.093191667,1.912580194
bellange,48.90140115,6.575381619
bellavilliers,48.417232256,0.491451079
belle eglise,49.187807938,2.214755331
belle et houllefort,50.74745877,1.766272123
belle isle en terre,48.531064511,-3.381836707
belle vie en auge,49.115179421,-0.028824543
belleau,48.848892142,6.186937372
bellebat,44.739155885,-0.222495653
bellebrune,50.732956561,1.77764552
bellechassagne,45.648777004,2.221825337
bellechaume,48.053272223,3.582371411
bellecombe,46.30983776,5.909294
bellecombe en bauges,45.738087469,6.144251427
bellecombe tarendol,44.356480253,5.355333586
bellefond,47.379539646,5.063928026
bellefonds,46.650793899,0.607726172
bellefont la rauze,44.513100348,1.5034530940000002
bellefontaine,46.556551899,6.082359393
bellefosse,48.395149192,7.234347153
bellegarde,47.974794777,2.394388513
bellegarde du razes,43.107445424,2.050808367
bellegarde en diois,44.53702742,5.433848063
bellegarde en forez,45.640903981,4.30928055
bellegarde en marche,45.981840475,2.294381481
bellegarde marsal,43.914404252,2.280501513
bellegarde poussieu,45.377825373,4.950982372
bellegarde ste marie,43.676139091,1.099523038
belleherbe,47.263740562,6.650637647
bellemagny,47.690719147,7.059170885
belleme,48.373272553,0.56329639
bellenaves,46.205847104,3.065944418
bellencombre,49.717880751,1.235705024
belleneuve,47.357498296,5.274054345
bellenglise,49.925986684,3.244543321
bellengreville,49.911144426,1.228407686
bellenod sur seine,47.695123627,4.645278091
bellenot sous pouilly,47.286821843,4.546193821
belleray,49.131906992,5.381934452
bellerive sur allier,46.121579254,3.397099624
belleroche,46.160735482,4.409309378
belles forets,48.808309743,6.900402754
belleserre,43.489901381,2.05988865
bellesserre,43.787367136,1.101848444
belleu,49.357066699,3.340164292
belleuse,49.703035944,2.113631876
bellevaux,46.227471736,6.553124135
bellevesvre,46.848415969,5.363906498
bellevigne,45.54631488,-0.116412292
bellevigne en layon,47.271572562,-0.535401566
bellevigne les chateaux,47.180498294,-0.056840075
bellevigny,46.790159286,-1.415126923
belleville,48.81439654,6.090242995
belleville en beaujolais,46.115672003,4.726490358
belleville en caux,49.70406446,0.988568789
belleville et chatillon sur bar,49.466090226,4.816965871
belleville sur loire,47.50149884,2.845586974
belleville sur meuse,49.179745406,5.395559781
bellevue la montagne,45.217085187,3.81538513
belley,45.749882762,5.683910513
belleydoux,46.253334104,5.785067125
bellicourt,49.959346714,3.23015235
bellignat,46.238150086,5.635913808
bellignies,50.322415774,3.763304387
bellinghem,50.661124516,2.231429984
belloc,43.00739017,1.933669882
belloc st clamens,43.456963983,0.437379127
bellocq,43.509422664,-0.921614321
bellon,45.312420995,0.116988913
bellonne,50.300824363,3.042452576
bellot,48.841877156,3.323964459
bellou en houlme,48.691606048,-0.443985174
bellou le trichard,48.263621597,0.55400733
belloy,49.535251873,2.652646136
belloy en france,49.092228842,2.371378479
belloy en santerre,49.884253485,2.860418569
belloy st leonard,49.905335717,1.910865704
belloy sur somme,49.98054868,2.138244746
belluire,45.530851874,-0.5560755460000001
belmesnil,49.768573606,1.049743249
belmont,47.028201675,5.605061014
belmont bretenoux,44.888330579,1.881185533
belmont d azergues,45.86752308,4.667808861
belmont de la loire,46.162175941,4.3503767490000005
belmont les darney,48.086423955,6.014673801
belmont ste foi,44.289323002,1.630776951
belmont sur buttant,48.22199245,6.768635874
belmont sur rance,43.824553348,2.751458787
belmont sur vair,48.259343754,5.915472928
belmont tramonet,45.567443638,5.665857793
belonchamp,47.773601385,6.609391174
belpech,43.203451366,1.763186341
belrain,48.86456422,5.307242287
belrupt,48.091042262,6.089046305
belrupt en verdunois,49.147737796,5.451607741
belsentes,44.915172091,4.501873879
belus,43.593155451,-1.116935358
belval,49.06090316,-1.35533348
belval bois des dames,49.481819143,5.043752341
belval en argonne,48.944488597,4.978985161
belval sous chatillon,49.126145257,3.855000912
belvedere,44.056319057,7.373545722
belvedere campomoro,41.617484765,8.823760312000001
belverne,47.627747177,6.654622601
belves de castillon,44.878759686,-0.027178979
belveze,44.327123013,1.090094965
belveze du razes,43.123813109,2.091082404
belvezet,44.090802431,4.355874807
belvianes et cavirac,42.847301256,2.212446619
belvis,42.856470799,2.074894368
belvoir,47.320330835,6.616289923
belz,47.672411176,-3.161744463
bemecourt,48.843322706,0.8484422880000001
benac,42.958095461,1.528254109
benagues,43.077767567,1.609995993
benais,47.315365889,0.217812076
benaix,42.895305448,1.850852879
benamenil,48.564692603,6.661611591
benarville,49.672559078,0.48474527
benay,49.755611918,3.308492655
benayes,45.523063154,1.468361971
bendejun,43.830449744,7.284290916
bendorf,47.484321191,7.278447951
benejacq,43.194583934,-0.189249154
benerville sur mer,49.338264637,0.048138841
benesse les dax,43.643862658,-1.038386395
benesse maremne,43.634189296,-1.364760603
benest,46.038840345,0.453232784
benestroff,48.908491988,6.756729146
benesville,49.751526446,0.8282112220000001
benet,46.369034265,-0.613853516
beneuvre,47.693462477,4.935269267
benevent l abbaye,46.11827962,1.62977342
beney en woevre,48.961503993,5.806738078
benfeld,48.365397047,7.601887106
bengy sur craon,46.999851496,2.731689278
benifontaine,50.475694247,2.82696694
bening les st avold,49.134418519,6.838257894
benivay ollon,44.31079161,5.187877089
bennecourt,49.047859126,1.571817385
benney,48.524842147,6.22420025
bennwihr mittelwihr,48.139375669,7.339984214
benodet,47.878417296,-4.076058689
benoisey,47.576889187,4.394799063
benoitville,49.528492786,-1.776191452
benon,46.199590755,-0.79765028
benonces,45.838144557,5.483119825
benouville,49.244010931,-0.288002622
benque,43.259691527,0.917749383
benque dessous et dessus,42.82091871,0.5418416770000001
benque molere,43.096830566,0.289284084
benquet,43.821566904,-0.507121848
bentayou seree,43.396068533,-0.062568912
beny,46.319387367,5.282567061
beny sur mer,49.290530513,-0.436928893
beon,47.949514225,3.312694731
beost,42.97990995,-0.329180152
berat,43.377850172,1.171788643
beraut,43.924769977,0.406964012
berberust lias,43.034703979,-0.033179313
berbezit,45.286452606,3.594349347
berbiguieres,44.839444537,1.044717452
bercenay en othe,48.19365785,3.896988216
bercenay le hayer,48.331461305,3.59044128
berche,47.465980255,6.746962924
bercheres les pierres,48.373614382,1.5559487600000002
bercheres st germain,48.534878113,1.468809372
bercheres sur vesgre,48.844020125,1.553118209
berck,50.41416334,1.582288066
